{"TimeUS":1746404999867965,"Img":2,"Points":[],"Epoch":1746404605761493,"Delta_t":214,"Feedback":{"time_usec":394106258,"img_idx":236,"lat":500108446,"lng":-1107174353,"alt_msl":691.8099975585938,"alt_rel":0.0,"roll":-1.1299999952316284,"pitch":-0.6599999666213989,"yaw":26.59000015258789,"completed_captures":30}}
{"TimeUS":1746405000088194,"Img":3,"Points":[],"Epoch":1746404605761707,"Delta_t":4,"Feedback":{"time_usec":394326483,"img_idx":237,"lat":500108433,"lng":-1107174350,"alt_msl":691.8800048828125,"alt_rel":0.0,"roll":-1.1399999856948853,"pitch":-0.6699999570846558,"yaw":26.56999969482422,"completed_captures":31}}
{"TimeUS":1746405000307932,"Img":4,"Points":[],"Epoch":1746404605761711,"Delta_t":6,"Feedback":{"time_usec":394546215,"img_idx":238,"lat":500108422,"lng":-1107174343,"alt_msl":691.9099731445313,"alt_rel":0.0,"roll":-1.1399999856948853,"pitch":-0.6800000071525574,"yaw":26.59000015258789,"completed_captures":32}}
{"TimeUS":1746405000528138,"Img":5,"Points":[],"Epoch":1746404605761717,"Delta_t":4,"Feedback":{"time_usec":394766417,"img_idx":239,"lat":500108414,"lng":-1107174335,"alt_msl":691.8800048828125,"alt_rel":0.0,"roll":-1.1299999952316284,"pitch":-0.6899999976158142,"yaw":26.59000015258789,"completed_captures":33}}
{"TimeUS":1746405000748166,"Img":6,"Points":[],"Epoch":1746404605761721,"Delta_t":5,"Feedback":{"time_usec":394986440,"img_idx":240,"lat":500108399,"lng":-1107174326,"alt_msl":691.9099731445313,"alt_rel":0.0,"roll":-1.1399999856948853,"pitch":-0.6800000071525574,"yaw":26.56999969482422,"completed_captures":34}}
{"TimeUS":1746405000968016,"Img":7,"Points":[],"Epoch":1746404605761726,"Delta_t":5,"Feedback":{"time_usec":395206285,"img_idx":241,"lat":500108392,"lng":-1107174324,"alt_msl":691.969970703125,"alt_rel":0.0,"roll":-1.1399999856948853,"pitch":-0.6899999976158142,"yaw":26.619998931884766,"completed_captures":35}}
{"TimeUS":1746405000968016,"Img":8,"Points":[],"Epoch":1746404605761731,"Delta_t":-220135,"Feedback":{"time_usec":395426420,"img_idx":242,"lat":500108392,"lng":-1107174324,"alt_msl":691.969970703125,"alt_rel":0.0,"roll":-1.149999976158142,"pitch":-0.699999988079071,"yaw":26.60999870300293,"completed_captures":36}}
{"TimeUS":1746405001188155,"Img":9,"Points":[],"Epoch":1746404605541596,"Delta_t":406,"Feedback":{"time_usec":395646153,"img_idx":243,"lat":500106930,"lng":-1107175237,"alt_msl":695.6499633789063,"alt_rel":0.0,"roll":-1.1399999856948853,"pitch":-0.6899999976158142,"yaw":26.599998474121094,"completed_captures":37}}
{"TimeUS":1746405001407894,"Img":10,"Points":[],"Epoch":1746404605542002,"Delta_t":-507,"Feedback":{"time_usec":395866399,"img_idx":244,"lat":500106932,"lng":-1107175240,"alt_msl":695.6599731445313,"alt_rel":0.0,"roll":-1.1399999856948853,"pitch":-0.6699999570846558,"yaw":26.549999237060547,"completed_captures":38}}
{"TimeUS":1746405001628145,"Img":11,"Points":[],"Epoch":1746404605541495,"Delta_t":205,"Feedback":{"time_usec":396086445,"img_idx":245,"lat":500106934,"lng":-1107175242,"alt_msl":695.6400146484375,"alt_rel":0.0,"roll":-1.1399999856948853,"pitch":-0.6599999666213989,"yaw":26.529998779296875,"completed_captures":39}}
{"TimeUS":1746405001848195,"Img":12,"Points":[],"Epoch":1746404605541700,"Delta_t":250,"Feedback":{"time_usec":396306245,"img_idx":246,"lat":500106937,"lng":-1107175247,"alt_msl":695.6499633789063,"alt_rel":0.0,"roll":-1.1399999856948853,"pitch":-0.6800000071525574,"yaw":26.56999969482422,"completed_captures":40}}
{"TimeUS":1746405002068000,"Img":13,"Points":[],"Epoch":1746404605541950,"Delta_t":-508,"Feedback":{"time_usec":396526558,"img_idx":247,"lat":500106939,"lng":-1107175256,"alt_msl":695.6599731445313,"alt_rel":0.0,"roll":-1.1299999952316284,"pitch":-0.6800000071525574,"yaw":26.599998474121094,"completed_captures":41}}
{"TimeUS":1746405002288318,"Img":14,"Points":[],"Epoch":1746404605541442,"Delta_t":763,"Feedback":{"time_usec":396746113,"img_idx":248,"lat":500106934,"lng":-1107175259,"alt_msl":695.6400146484375,"alt_rel":0.0,"roll":-1.1299999952316284,"pitch":-0.6800000071525574,"yaw":26.599998474121094,"completed_captures":42}}
{"TimeUS":1746405002507878,"Img":15,"Points":[],"Epoch":1746404605542205,"Delta_t":-730,"Feedback":{"time_usec":396966403,"img_idx":249,"lat":500106933,"lng":-1107175262,"alt_msl":695.6099853515625,"alt_rel":0.0,"roll":-1.1200000047683716,"pitch":-0.6899999976158142,"yaw":26.649999618530273,"completed_captures":43}}
{"TimeUS":1746405002728173,"Img":16,"Points":[],"Epoch":1746404605541475,"Delta_t":137,"Feedback":{"time_usec":397186561,"img_idx":250,"lat":500106938,"lng":-1107175267,"alt_msl":695.5999755859375,"alt_rel":0.0,"roll":-1.1200000047683716,"pitch":-0.6899999976158142,"yaw":26.649999618530273,"completed_captures":44}}
{"TimeUS":1746405002948335,"Img":17,"Points":[],"Epoch":1746404605541612,"Delta_t":517,"Feedback":{"time_usec":397406206,"img_idx":251,"lat":500106931,"lng":-1107175268,"alt_msl":695.469970703125,"alt_rel":0.0,"roll":-1.1100000143051147,"pitch":-0.6800000071525574,"yaw":26.60999870300293,"completed_captures":45}}
{"TimeUS":1746405003167984,"Img":18,"Points":[],"Epoch":1746404605542129,"Delta_t":-573,"Feedback":{"time_usec":397626428,"img_idx":252,"lat":500106928,"lng":-1107175270,"alt_msl":695.510009765625,"alt_rel":0.0,"roll":-1.1200000047683716,"pitch":-0.6699999570846558,"yaw":26.599998474121094,"completed_captures":46}}
{"TimeUS":1746405003388213,"Img":19,"Points":[],"Epoch":1746404605541556,"Delta_t":518,"Feedback":{"time_usec":397846139,"img_idx":253,"lat":500106923,"lng":-1107175270,"alt_msl":695.47998046875,"alt_rel":0.0,"roll":-1.1200000047683716,"pitch":-0.6599999666213989,"yaw":26.59000015258789,"completed_captures":47}}
{"TimeUS":1746405003607929,"Img":20,"Points":[],"Epoch":1746404605542074,"Delta_t":-575,"Feedback":{"time_usec":398066430,"img_idx":254,"lat":500106912,"lng":-1107175271,"alt_msl":695.3499755859375,"alt_rel":0.0,"roll":-1.1200000047683716,"pitch":-0.6699999570846558,"yaw":26.599998474121094,"completed_captures":48}}
{"TimeUS":1746405003828224,"Img":21,"Points":[],"Epoch":1746404605541499,"Delta_t":272,"Feedback":{"time_usec":398286453,"img_idx":255,"lat":500106902,"lng":-1107175274,"alt_msl":695.1900024414063,"alt_rel":0.0,"roll":-1.1100000143051147,"pitch":-0.6699999570846558,"yaw":26.579999923706055,"completed_captures":49}}
{"TimeUS":1746405004048252,"Img":22,"Points":[],"Epoch":1746404605541771,"Delta_t":250,"Feedback":{"time_usec":398506231,"img_idx":256,"lat":500106898,"lng":-1107175282,"alt_msl":695.1699829101563,"alt_rel":0.0,"roll":-1.1100000143051147,"pitch":-0.6699999570846558,"yaw":26.579999923706055,"completed_captures":50}}
{"TimeUS":1746405004268035,"Img":23,"Points":[],"Epoch":1746404605542021,"Delta_t":-464,"Feedback":{"time_usec":398726478,"img_idx":257,"lat":500106896,"lng":-1107175284,"alt_msl":695.1300048828125,"alt_rel":0.0,"roll":-1.100000023841858,"pitch":-0.6599999666213989,"yaw":26.59000015258789,"completed_captures":51}}
{"TimeUS":1746405004488286,"Img":24,"Points":[],"Epoch":1746404605541557,"Delta_t":540,"Feedback":{"time_usec":398946189,"img_idx":258,"lat":500106896,"lng":-1107175281,"alt_msl":694.989990234375,"alt_rel":0.0,"roll":-1.090000033378601,"pitch":-0.6599999666213989,"yaw":26.6299991607666,"completed_captures":52}}
{"TimeUS":1746405004708002,"Img":25,"Points":[],"Epoch":1746404605542097,"Delta_t":-529,"Feedback":{"time_usec":399166434,"img_idx":259,"lat":500106899,"lng":-1107175281,"alt_msl":694.9400024414063,"alt_rel":0.0,"roll":-1.0799999237060547,"pitch":-0.6699999570846558,"yaw":26.689998626708984,"completed_captures":53}}
{"TimeUS":1746405004928253,"Img":26,"Points":[],"Epoch":1746404605541568,"Delta_t":272,"Feedback":{"time_usec":399386413,"img_idx":260,"lat":500106906,"lng":-1107175279,"alt_msl":695.0299682617188,"alt_rel":0.0,"roll":-1.0799999237060547,"pitch":-0.6699999570846558,"yaw":26.68000030517578,"completed_captures":54}}
{"TimeUS":1746405005148236,"Img":27,"Points":[],"Epoch":1746404605541840,"Delta_t":183,"Feedback":{"time_usec":399606213,"img_idx":261,"lat":500106910,"lng":-1107175282,"alt_msl":694.97998046875,"alt_rel":0.0,"roll":-1.0799999237060547,"pitch":-0.6699999570846558,"yaw":26.65999984741211,"completed_captures":55}}
{"TimeUS":1746405005368041,"Img":28,"Points":[],"Epoch":1746404605542023,"Delta_t":-397,"Feedback":{"time_usec":399826415,"img_idx":262,"lat":500106908,"lng":-1107175284,"alt_msl":694.9099731445313,"alt_rel":0.0,"roll":-1.0699999332427979,"pitch":-0.6399999856948853,"yaw":26.649999618530273,"completed_captures":56}}
{"TimeUS":1746405005588248,"Img":29,"Points":[],"Epoch":1746404605541626,"Delta_t":496,"Feedback":{"time_usec":400046126,"img_idx":263,"lat":500106905,"lng":-1107175286,"alt_msl":694.9299926757813,"alt_rel":0.0,"roll":-1.0799999237060547,"pitch":-0.6599999666213989,"yaw":26.670000076293945,"completed_captures":57}}
{"TimeUS":1746405005807964,"Img":30,"Points":[],"Epoch":1746404605542122,"Delta_t":-597,"Feedback":{"time_usec":400266439,"img_idx":264,"lat":500106902,"lng":-1107175289,"alt_msl":694.8299560546875,"alt_rel":0.0,"roll":-1.090000033378601,"pitch":-0.6699999570846558,"yaw":26.65999984741211,"completed_captures":58}}
{"TimeUS":1746405006028281,"Img":31,"Points":[],"Epoch":1746404605541525,"Delta_t":316,"Feedback":{"time_usec":400486440,"img_idx":265,"lat":500106902,"lng":-1107175285,"alt_msl":694.7799682617188,"alt_rel":0.0,"roll":-1.090000033378601,"pitch":-0.6899999976158142,"yaw":26.689998626708984,"completed_captures":59}}
{"TimeUS":1746405006248287,"Img":32,"Points":[],"Epoch":1746404605541841,"Delta_t":206,"Feedback":{"time_usec":400706240,"img_idx":266,"lat":500106900,"lng":-1107175281,"alt_msl":694.6199951171875,"alt_rel":0.0,"roll":-1.090000033378601,"pitch":-0.6800000071525574,"yaw":26.670000076293945,"completed_captures":60}}
{"TimeUS":1746405006468092,"Img":33,"Points":[],"Epoch":1746404605542047,"Delta_t":-419,"Feedback":{"time_usec":400926464,"img_idx":267,"lat":500106900,"lng":-1107175281,"alt_msl":694.5299682617188,"alt_rel":0.0,"roll":-1.090000033378601,"pitch":-0.6599999666213989,"yaw":26.689998626708984,"completed_captures":61}}
{"TimeUS":1746405006688321,"Img":34,"Points":[],"Epoch":1746404605541628,"Delta_t":496,"Feedback":{"time_usec":401146197,"img_idx":268,"lat":500106902,"lng":-1107175285,"alt_msl":694.469970703125,"alt_rel":0.0,"roll":-1.090000033378601,"pitch":-0.6599999666213989,"yaw":26.670000076293945,"completed_captures":62}}
{"TimeUS":1746405006908059,"Img":35,"Points":[],"Epoch":1746404605542124,"Delta_t":-486,"Feedback":{"time_usec":401366421,"img_idx":269,"lat":500106905,"lng":-1107175291,"alt_msl":694.4500122070313,"alt_rel":0.0,"roll":-1.100000023841858,"pitch":-0.6499999761581421,"yaw":26.549999237060547,"completed_captures":63}}
{"TimeUS":1746405007128288,"Img":36,"Points":[],"Epoch":1746404605541638,"Delta_t":184,"Feedback":{"time_usec":401586466,"img_idx":270,"lat":500106907,"lng":-1107175292,"alt_msl":694.4199829101563,"alt_rel":0.0,"roll":-1.090000033378601,"pitch":-0.6499999761581421,"yaw":26.56999969482422,"completed_captures":64}}
{"TimeUS":1746405007348338,"Img":37,"Points":[],"Epoch":1746404605541822,"Delta_t":227,"Feedback":{"time_usec":401806289,"img_idx":271,"lat":500106912,"lng":-1107175291,"alt_msl":694.3599853515625,"alt_rel":0.0,"roll":-1.090000033378601,"pitch":-0.6599999666213989,"yaw":26.60999870300293,"completed_captures":65}}
{"TimeUS":1746405007568166,"Img":38,"Points":[],"Epoch":1746404605542049,"Delta_t":-373,"Feedback":{"time_usec":402026490,"img_idx":272,"lat":500106920,"lng":-1107175296,"alt_msl":694.219970703125,"alt_rel":0.0,"roll":-1.090000033378601,"pitch":-0.6699999570846558,"yaw":26.6299991607666,"completed_captures":66}}
{"TimeUS":1746405007788372,"Img":39,"Points":[],"Epoch":1746404605541676,"Delta_t":538,"Feedback":{"time_usec":402246158,"img_idx":273,"lat":500106922,"lng":-1107175297,"alt_msl":694.1099853515625,"alt_rel":0.0,"roll":-1.090000033378601,"pitch":-0.6699999570846558,"yaw":26.599998474121094,"completed_captures":67}}
{"TimeUS":1746405008008043,"Img":40,"Points":[],"Epoch":1746404605542214,"Delta_t":-574,"Feedback":{"time_usec":402466403,"img_idx":274,"lat":500106921,"lng":-1107175295,"alt_msl":694.0799560546875,"alt_rel":0.0,"roll":-1.090000033378601,"pitch":-0.6599999666213989,"yaw":26.59000015258789,"completed_captures":68}}
{"TimeUS":1746405008228294,"Img":41,"Points":[],"Epoch":1746404605541640,"Delta_t":273,"Feedback":{"time_usec":402686381,"img_idx":275,"lat":500106921,"lng":-1107175297,"alt_msl":694.010009765625,"alt_rel":0.0,"roll":-1.100000023841858,"pitch":-0.6599999666213989,"yaw":26.559999465942383,"completed_captures":69}}
{"TimeUS":1746405008448278,"Img":42,"Points":[],"Epoch":1746404605541913,"Delta_t":161,"Feedback":{"time_usec":402906204,"img_idx":276,"lat":500106925,"lng":-1107175299,"alt_msl":693.969970703125,"alt_rel":0.0,"roll":-1.090000033378601,"pitch":-0.6599999666213989,"yaw":26.60999870300293,"completed_captures":70}}
{"TimeUS":1746405008668105,"Img":43,"Points":[],"Epoch":1746404605542074,"Delta_t":-374,"Feedback":{"time_usec":403126405,"img_idx":277,"lat":500106931,"lng":-1107175302,"alt_msl":693.9099731445313,"alt_rel":0.0,"roll":-1.0799999237060547,"pitch":-0.6599999666213989,"yaw":26.6299991607666,"completed_captures":71}}
{"TimeUS":1746405008888311,"Img":44,"Points":[],"Epoch":1746404605541700,"Delta_t":428,"Feedback":{"time_usec":403346183,"img_idx":278,"lat":500106941,"lng":-1107175308,"alt_msl":693.8200073242188,"alt_rel":0.0,"roll":-1.059999942779541,"pitch":-0.6699999570846558,"yaw":26.670000076293945,"completed_captures":72}}
{"TimeUS":1746405009108094,"Img":45,"Points":[],"Epoch":1746404605542128,"Delta_t":-508,"Feedback":{"time_usec":403566474,"img_idx":279,"lat":500106951,"lng":-1107175315,"alt_msl":693.7099609375,"alt_rel":0.0,"roll":-1.059999942779541,"pitch":-0.6499999761581421,"yaw":26.599998474121094,"completed_captures":73}}
{"TimeUS":1746405009328390,"Img":46,"Points":[],"Epoch":1746404605541620,"Delta_t":340,"Feedback":{"time_usec":403786430,"img_idx":280,"lat":500106955,"lng":-1107175323,"alt_msl":693.6099853515625,"alt_rel":0.0,"roll":-1.0699999332427979,"pitch":-0.6699999570846558,"yaw":26.599998474121094,"completed_captures":74}}
{"TimeUS":1746405009548351,"Img":47,"Points":[],"Epoch":1746404605541960,"Delta_t":138,"Feedback":{"time_usec":404006253,"img_idx":281,"lat":500106958,"lng":-1107175331,"alt_msl":693.6400146484375,"alt_rel":0.0,"roll":-1.0799999237060547,"pitch":-0.6699999570846558,"yaw":26.579999923706055,"completed_captures":75}}
{"TimeUS":1746405009768178,"Img":48,"Points":[],"Epoch":1746404605542098,"Delta_t":-575,"Feedback":{"time_usec":404226655,"img_idx":282,"lat":500106961,"lng":-1107175343,"alt_msl":693.5299682617188,"alt_rel":0.0,"roll":-1.059999942779541,"pitch":-0.6699999570846558,"yaw":26.670000076293945,"completed_captures":76}}
{"TimeUS":1746405009988585,"Img":49,"Points":[],"Epoch":1746404605541523,"Delta_t":919,"Feedback":{"time_usec":404446143,"img_idx":283,"lat":500106958,"lng":-1107175341,"alt_msl":693.4299926757813,"alt_rel":0.0,"roll":-1.0699999332427979,"pitch":-0.6399999856948853,"yaw":26.56999969482422,"completed_captures":77}}
{"TimeUS":1746405010208078,"Img":50,"Points":[],"Epoch":1746404605542442,"Delta_t":-798,"Feedback":{"time_usec":404666434,"img_idx":284,"lat":500106957,"lng":-1107175337,"alt_msl":693.3599853515625,"alt_rel":0.0,"roll":-1.059999942779541,"pitch":-0.6299999952316284,"yaw":26.59000015258789,"completed_captures":78}}
{"TimeUS":1746405010428374,"Img":51,"Points":[],"Epoch":1746404605541644,"Delta_t":273,"Feedback":{"time_usec":404886457,"img_idx":285,"lat":500106960,"lng":-1107175334,"alt_msl":693.3299560546875,"alt_rel":0.0,"roll":-1.0699999332427979,"pitch":-0.6299999952316284,"yaw":26.60999870300293,"completed_captures":79}}
{"TimeUS":1746405010648402,"Img":52,"Points":[],"Epoch":1746404605541917,"Delta_t":206,"Feedback":{"time_usec":405106279,"img_idx":286,"lat":500106960,"lng":-1107175333,"alt_msl":693.239990234375,"alt_rel":0.0,"roll":-1.0799999237060547,"pitch":-0.6299999952316284,"yaw":26.56999969482422,"completed_captures":80}}
{"TimeUS":1746405010868229,"Img":53,"Points":[],"Epoch":1746404605542123,"Delta_t":-375,"Feedback":{"time_usec":405326481,"img_idx":287,"lat":500106959,"lng":-1107175333,"alt_msl":693.239990234375,"alt_rel":0.0,"roll":-1.0799999237060547,"pitch":-0.6499999761581421,"yaw":26.59000015258789,"completed_captures":81}}
{"TimeUS":1746405011088436,"Img":54,"Points":[],"Epoch":1746404605541748,"Delta_t":541,"Feedback":{"time_usec":405546147,"img_idx":288,"lat":500106956,"lng":-1107175331,"alt_msl":693.219970703125,"alt_rel":0.0,"roll":-1.0799999237060547,"pitch":-0.6499999761581421,"yaw":26.56999969482422,"completed_captures":82}}
{"TimeUS":1746405011308107,"Img":55,"Points":[],"Epoch":1746404605542289,"Delta_t":-620,"Feedback":{"time_usec":405766438,"img_idx":289,"lat":500106957,"lng":-1107175331,"alt_msl":693.1699829101563,"alt_rel":0.0,"roll":-1.0799999237060547,"pitch":-0.6499999761581421,"yaw":26.59000015258789,"completed_captures":83}}
{"TimeUS":1746405011528403,"Img":56,"Points":[],"Epoch":1746404605541669,"Delta_t":340,"Feedback":{"time_usec":405986394,"img_idx":290,"lat":500106962,"lng":-1107175334,"alt_msl":693.1699829101563,"alt_rel":0.0,"roll":-1.0799999237060547,"pitch":-0.6499999761581421,"yaw":26.59000015258789,"completed_captures":84}}
{"TimeUS":1746405011748364,"Img":57,"Points":[],"Epoch":1746404605542009,"Delta_t":4,"Feedback":{"time_usec":406206351,"img_idx":291,"lat":500106959,"lng":-1107175333,"alt_msl":693.0499877929688,"alt_rel":0.0,"roll":-1.090000033378601,"pitch":-0.6599999666213989,"yaw":26.579999923706055,"completed_captures":85}}
{"TimeUS":1746405011968325,"Img":58,"Points":[],"Epoch":1746404605542013,"Delta_t":-218,"Feedback":{"time_usec":406426530,"img_idx":292,"lat":500106959,"lng":-1107175337,"alt_msl":693.0499877929688,"alt_rel":0.0,"roll":-1.090000033378601,"pitch":-0.6599999666213989,"yaw":26.60999870300293,"completed_captures":86}}
{"TimeUS":1746405012188509,"Img":59,"Points":[],"Epoch":1746404605541795,"Delta_t":562,"Feedback":{"time_usec":406646152,"img_idx":293,"lat":500106961,"lng":-1107175335,"alt_msl":693.0199584960938,"alt_rel":0.0,"roll":-1.0799999237060547,"pitch":-0.6699999570846558,"yaw":26.619998931884766,"completed_captures":87}}
{"TimeUS":1746405012408136,"Img":60,"Points":[],"Epoch":1746404605542357,"Delta_t":-641,"Feedback":{"time_usec":406866420,"img_idx":294,"lat":500106961,"lng":-1107175331,"alt_msl":692.9599609375,"alt_rel":0.0,"roll":-1.0799999237060547,"pitch":-0.6699999570846558,"yaw":26.6299991607666,"completed_captures":88}}
{"TimeUS":1746405012628409,"Img":61,"Points":[],"Epoch":1746404605541716,"Delta_t":250,"Feedback":{"time_usec":407086443,"img_idx":295,"lat":500106960,"lng":-1107175327,"alt_msl":692.8999633789063,"alt_rel":0.0,"roll":-1.090000033378601,"pitch":-0.6599999666213989,"yaw":26.59000015258789,"completed_captures":89}}
{"TimeUS":1746405012848437,"Img":62,"Points":[],"Epoch":1746404605541966,"Delta_t":205,"Feedback":{"time_usec":407306266,"img_idx":296,"lat":500106964,"lng":-1107175328,"alt_msl":692.9599609375,"alt_rel":0.0,"roll":-1.100000023841858,"pitch":-0.6599999666213989,"yaw":26.59000015258789,"completed_captures":90}}
{"TimeUS":1746405013068264,"Img":63,"Points":[],"Epoch":1746404605542171,"Delta_t":19737,"Feedback":{"time_usec":407506356,"img_idx":297,"lat":500106964,"lng":-1107175329,"alt_msl":692.9599609375,"alt_rel":0.0,"roll":-1.100000023841858,"pitch":-0.6599999666213989,"yaw":26.599998474121094,"completed_captures":91}}
{"TimeUS":1746405013268359,"Img":64,"Points":[],"Epoch":1746404605561908,"Delta_t":-20017,"Feedback":{"time_usec":407726468,"img_idx":298,"lat":500106961,"lng":-1107175331,"alt_msl":692.9400024414063,"alt_rel":0.0,"roll":-1.090000033378601,"pitch":-0.6800000071525574,"yaw":26.639999389648438,"completed_captures":92}}
{"TimeUS":1746405013488476,"Img":65,"Points":[],"Epoch":1746404605541891,"Delta_t":473,"Feedback":{"time_usec":407946112,"img_idx":299,"lat":500106959,"lng":-1107175333,"alt_msl":692.9500122070313,"alt_rel":0.0,"roll":-1.090000033378601,"pitch":-0.6599999666213989,"yaw":26.619998931884766,"completed_captures":93}}
{"TimeUS":1746405013708125,"Img":66,"Points":[],"Epoch":1746404605542364,"Delta_t":-687,"Feedback":{"time_usec":408166448,"img_idx":300,"lat":500106959,"lng":-1107175334,"alt_msl":692.9299926757813,"alt_rel":0.0,"roll":-1.090000033378601,"pitch":-0.6499999761581421,"yaw":26.619998931884766,"completed_captures":94}}
{"TimeUS":1746405013928465,"Img":67,"Points":[],"Epoch":1746404605541677,"Delta_t":339,"Feedback":{"time_usec":408386449,"img_idx":301,"lat":500106962,"lng":-1107175336,"alt_msl":692.9199829101563,"alt_rel":0.0,"roll":-1.100000023841858,"pitch":-0.6399999856948853,"yaw":26.59000015258789,"completed_captures":95}}
{"TimeUS":1746405014148471,"Img":68,"Points":[],"Epoch":1746404605542016,"Delta_t":139,"Feedback":{"time_usec":408606316,"img_idx":302,"lat":500106963,"lng":-1107175336,"alt_msl":692.9299926757813,"alt_rel":0.0,"roll":-1.090000033378601,"pitch":-0.6299999952316284,"yaw":26.549999237060547,"completed_captures":96}}
{"TimeUS":1746405014368343,"Img":69,"Points":[],"Epoch":1746404605542155,"Delta_t":-308,"Feedback":{"time_usec":408826496,"img_idx":303,"lat":500106964,"lng":-1107175337,"alt_msl":692.8999633789063,"alt_rel":0.0,"roll":-1.090000033378601,"pitch":-0.6100000143051147,"yaw":26.529998779296875,"completed_captures":97}}
{"TimeUS":1746405014588527,"Img":70,"Points":[],"Epoch":1746404605541847,"Delta_t":430,"Feedback":{"time_usec":409046250,"img_idx":304,"lat":500106965,"lng":-1107175339,"alt_msl":692.8999633789063,"alt_rel":0.0,"roll":-1.090000033378601,"pitch":-0.6299999952316284,"yaw":26.56999969482422,"completed_captures":98}}
{"TimeUS":1746405014808287,"Img":71,"Points":[],"Epoch":1746404605542277,"Delta_t":-442,"Feedback":{"time_usec":409266452,"img_idx":305,"lat":500106964,"lng":-1107175338,"alt_msl":692.8800048828125,"alt_rel":0.0,"roll":-1.1100000143051147,"pitch":-0.6399999856948853,"yaw":26.56999969482422,"completed_captures":99}}
{"TimeUS":1746405015028494,"Img":72,"Points":[],"Epoch":1746404605541835,"Delta_t":95,"Feedback":{"time_usec":409486564,"img_idx":306,"lat":500106963,"lng":-1107175337,"alt_msl":692.8800048828125,"alt_rel":0.0,"roll":-1.1100000143051147,"pitch":-0.6399999856948853,"yaw":26.60999870300293,"completed_captures":100}}
{"TimeUS":1746405015248611,"Img":73,"Points":[],"Epoch":1746404605541930,"Delta_t":428,"Feedback":{"time_usec":409706253,"img_idx":307,"lat":500106961,"lng":-1107175337,"alt_msl":692.8499755859375,"alt_rel":0.0,"roll":-1.0799999237060547,"pitch":-0.6399999856948853,"yaw":26.599998474121094,"completed_captures":101}}
{"TimeUS":1746405015468305,"Img":74,"Points":[],"Epoch":1746404605542358,"Delta_t":-552,"Feedback":{"time_usec":409926499,"img_idx":308,"lat":500106959,"lng":-1107175334,"alt_msl":692.7999877929688,"alt_rel":0.0,"roll":-1.0699999332427979,"pitch":-0.6499999761581421,"yaw":26.599998474121094,"completed_captures":102}}
{"TimeUS":1746405015688556,"Img":75,"Points":[],"Epoch":1746404605541806,"Delta_t":562,"Feedback":{"time_usec":410146188,"img_idx":309,"lat":500106959,"lng":-1107175331,"alt_msl":692.75,"alt_rel":0.0,"roll":-1.0799999237060547,"pitch":-0.6599999666213989,"yaw":26.599998474121094,"completed_captures":103}}
{"TimeUS":1746405015908249,"Img":76,"Points":[],"Epoch":1746404605542368,"Delta_t":-553,"Feedback":{"time_usec":410366434,"img_idx":310,"lat":500106961,"lng":-1107175331,"alt_msl":692.719970703125,"alt_rel":0.0,"roll":-1.0799999237060547,"pitch":-0.6299999952316284,"yaw":26.549999237060547,"completed_captures":104}}
{"TimeUS":1746405016128500,"Img":77,"Points":[],"Epoch":1746404605541815,"Delta_t":206,"Feedback":{"time_usec":410586479,"img_idx":311,"lat":500106968,"lng":-1107175330,"alt_msl":692.72998046875,"alt_rel":0.0,"roll":-1.090000033378601,"pitch":-0.6100000143051147,"yaw":26.56999969482422,"completed_captures":105}}
{"TimeUS":1746405016348550,"Img":78,"Points":[],"Epoch":1746404605542021,"Delta_t":227,"Feedback":{"time_usec":410806302,"img_idx":312,"lat":500106977,"lng":-1107175333,"alt_msl":692.8099975585938,"alt_rel":0.0,"roll":-1.090000033378601,"pitch":-0.6299999952316284,"yaw":26.579999923706055,"completed_captures":106}}
{"TimeUS":1746405016568378,"Img":79,"Points":[],"Epoch":1746404605542248,"Delta_t":-351,"Feedback":{"time_usec":411026481,"img_idx":313,"lat":500106985,"lng":-1107175338,"alt_msl":692.8999633789063,"alt_rel":0.0,"roll":-1.090000033378601,"pitch":-0.6299999952316284,"yaw":26.579999923706055,"completed_captures":107}}
{"TimeUS":1746405016788562,"Img":80,"Points":[],"Epoch":1746404605541897,"Delta_t":473,"Feedback":{"time_usec":411246192,"img_idx":314,"lat":500106983,"lng":-1107175338,"alt_msl":692.9299926757813,"alt_rel":0.0,"roll":-1.090000033378601,"pitch":-0.6399999856948853,"yaw":26.559999465942383,"completed_captures":108}}
{"TimeUS":1746405017008278,"Img":81,"Points":[],"Epoch":1746404605542370,"Delta_t":-575,"Feedback":{"time_usec":411466483,"img_idx":315,"lat":500106982,"lng":-1107175340,"alt_msl":692.969970703125,"alt_rel":0.0,"roll":-1.090000033378601,"pitch":-0.6399999856948853,"yaw":26.59000015258789,"completed_captures":109}}
{"TimeUS":1746405017228573,"Img":82,"Points":[],"Epoch":1746404605541795,"Delta_t":316,"Feedback":{"time_usec":411686462,"img_idx":316,"lat":500106983,"lng":-1107175343,"alt_msl":693.010009765625,"alt_rel":0.0,"roll":-1.090000033378601,"pitch":-0.6499999761581421,"yaw":26.6299991607666,"completed_captures":110}}
{"TimeUS":1746405017448557,"Img":83,"Points":[],"Epoch":1746404605542111,"Delta_t":228,"Feedback":{"time_usec":411906218,"img_idx":317,"lat":500106986,"lng":-1107175345,"alt_msl":693.0999755859375,"alt_rel":0.0,"roll":-1.0799999237060547,"pitch":-0.6499999761581421,"yaw":26.639999389648438,"completed_captures":111}}
{"TimeUS":1746405017668317,"Img":84,"Points":[],"Epoch":1746404605542339,"Delta_t":-485,"Feedback":{"time_usec":412126463,"img_idx":318,"lat":500106987,"lng":-1107175347,"alt_msl":693.1499633789063,"alt_rel":0.0,"roll":-1.0799999237060547,"pitch":-0.6499999761581421,"yaw":26.65999984741211,"completed_captures":112}}
{"TimeUS":1746405017888568,"Img":85,"Points":[],"Epoch":1746404605541854,"Delta_t":540,"Feedback":{"time_usec":412346174,"img_idx":319,"lat":500106987,"lng":-1107175345,"alt_msl":693.1599731445313,"alt_rel":0.0,"roll":-1.0799999237060547,"pitch":-0.6499999761581421,"yaw":26.639999389648438,"completed_captures":113}}
{"TimeUS":1746405018108284,"Img":86,"Points":[],"Epoch":1746404605542394,"Delta_t":-508,"Feedback":{"time_usec":412566398,"img_idx":320,"lat":500106989,"lng":-1107175346,"alt_msl":693.1799926757813,"alt_rel":0.0,"roll":-1.0799999237060547,"pitch":-0.6499999761581421,"yaw":26.6299991607666,"completed_captures":114}}
{"TimeUS":1746405018328513,"Img":87,"Points":[],"Epoch":1746404605541886,"Delta_t":206,"Feedback":{"time_usec":412786421,"img_idx":321,"lat":500106992,"lng":-1107175350,"alt_msl":693.25,"alt_rel":0.0,"roll":-1.0699999332427979,"pitch":-0.6499999761581421,"yaw":26.619998931884766,"completed_captures":115}}
{"TimeUS":1746405018548541,"Img":88,"Points":[],"Epoch":1746404605542092,"Delta_t":204,"Feedback":{"time_usec":413006245,"img_idx":322,"lat":500107002,"lng":-1107175363,"alt_msl":693.3299560546875,"alt_rel":0.0,"roll":-1.0799999237060547,"pitch":-0.6499999761581421,"yaw":26.599998474121094,"completed_captures":116}}
{"TimeUS":1746405018768368,"Img":89,"Points":[],"Epoch":1746404605542296,"Delta_t":-440,"Feedback":{"time_usec":413226512,"img_idx":323,"lat":500107003,"lng":-1107175370,"alt_msl":693.3099975585938,"alt_rel":0.0,"roll":-1.0799999237060547,"pitch":-0.6499999761581421,"yaw":26.6299991607666,"completed_captures":117}}
{"TimeUS":1746405018988641,"Img":90,"Points":[],"Epoch":1746404605541856,"Delta_t":584,"Feedback":{"time_usec":413446201,"img_idx":324,"lat":500107000,"lng":-1107175370,"alt_msl":693.2699584960938,"alt_rel":0.0,"roll":-1.0799999237060547,"pitch":-0.6499999761581421,"yaw":26.619998931884766,"completed_captures":118}}
{"TimeUS":1746405019208335,"Img":91,"Points":[],"Epoch":1746404605542440,"Delta_t":-552,"Feedback":{"time_usec":413666447,"img_idx":325,"lat":500107001,"lng":-1107175367,"alt_msl":693.2699584960938,"alt_rel":0.0,"roll":-1.0699999332427979,"pitch":-0.6499999761581421,"yaw":26.619998931884766,"completed_captures":119}}
{"TimeUS":1746405019428586,"Img":92,"Points":[],"Epoch":1746404605541888,"Delta_t":205,"Feedback":{"time_usec":413886493,"img_idx":326,"lat":500107000,"lng":-1107175366,"alt_msl":693.2799682617188,"alt_rel":0.0,"roll":-1.0699999332427979,"pitch":-0.6499999761581421,"yaw":26.619998931884766,"completed_captures":120}}
{"TimeUS":1746405019648636,"Img":93,"Points":[],"Epoch":1746404605542093,"Delta_t":250,"Feedback":{"time_usec":414106293,"img_idx":327,"lat":500106999,"lng":-1107175367,"alt_msl":693.3399658203125,"alt_rel":0.0,"roll":-1.0699999332427979,"pitch":-0.6599999666213989,"yaw":26.6299991607666,"completed_captures":121}}
{"TimeUS":1746405019868441,"Img":94,"Points":[],"Epoch":1746404605542343,"Delta_t":19693,"Feedback":{"time_usec":414306405,"img_idx":328,"lat":500106996,"lng":-1107175370,"alt_msl":693.3200073242188,"alt_rel":0.0,"roll":-1.0799999237060547,"pitch":-0.6599999666213989,"yaw":26.599998474121094,"completed_captures":122}}
{"TimeUS":1746405020068558,"Img":95,"Points":[],"Epoch":1746404605562036,"Delta_t":-19995,"Feedback":{"time_usec":414526517,"img_idx":329,"lat":500106994,"lng":-1107175373,"alt_msl":693.3299560546875,"alt_rel":0.0,"roll":-1.0699999332427979,"pitch":-0.6499999761581421,"yaw":26.599998474121094,"completed_captures":123}}
{"TimeUS":1746405020288675,"Img":96,"Points":[],"Epoch":1746404605542041,"Delta_t":428,"Feedback":{"time_usec":414746206,"img_idx":330,"lat":500106991,"lng":-1107175372,"alt_msl":693.2999877929688,"alt_rel":0.0,"roll":-1.0699999332427979,"pitch":-0.6599999666213989,"yaw":26.639999389648438,"completed_captures":124}}
{"TimeUS":1746405020508369,"Img":97,"Points":[],"Epoch":1746404605542469,"Delta_t":-552,"Feedback":{"time_usec":414966452,"img_idx":331,"lat":500106990,"lng":-1107175371,"alt_msl":693.2699584960938,"alt_rel":0.0,"roll":-1.059999942779541,"pitch":-0.6599999666213989,"yaw":26.68000030517578,"completed_captures":125}}
{"TimeUS":1746405020728620,"Img":98,"Points":[],"Epoch":1746404605541917,"Delta_t":250,"Feedback":{"time_usec":415186453,"img_idx":332,"lat":500106990,"lng":-1107175373,"alt_msl":693.260009765625,"alt_rel":0.0,"roll":-1.0399999618530273,"pitch":-0.6800000071525574,"yaw":26.76999855041504,"completed_captures":126}}
{"TimeUS":1746405020948626,"Img":99,"Points":[],"Epoch":1746404605542167,"Delta_t":116,"Feedback":{"time_usec":415406343,"img_idx":333,"lat":500106991,"lng":-1107175375,"alt_msl":693.25,"alt_rel":0.0,"roll":-1.0399999618530273,"pitch":-0.6800000071525574,"yaw":26.76999855041504,"completed_captures":127}}
{"TimeUS":1746405021168520,"Img":100,"Points":[],"Epoch":1746404605542283,"Delta_t":-285,"Feedback":{"time_usec":415626522,"img_idx":334,"lat":500106997,"lng":-1107175378,"alt_msl":693.25,"alt_rel":0.0,"roll":-1.059999942779541,"pitch":-0.6699999570846558,"yaw":26.719999313354492,"completed_captures":128}}
{"TimeUS":1746405021388704,"Img":101,"Points":[],"Epoch":1746404605541998,"Delta_t":496,"Feedback":{"time_usec":415846210,"img_idx":335,"lat":500107000,"lng":-1107175379,"alt_msl":693.3099975585938,"alt_rel":0.0,"roll":-1.0799999237060547,"pitch":-0.6699999570846558,"yaw":26.670000076293945,"completed_captures":129}}
{"TimeUS":1746405021608398,"Img":102,"Points":[],"Epoch":1746404605542494,"Delta_t":-508,"Feedback":{"time_usec":416066412,"img_idx":336,"lat":500107001,"lng":-1107175379,"alt_msl":693.3200073242188,"alt_rel":0.0,"roll":-1.0499999523162842,"pitch":-0.6299999952316284,"yaw":26.68000030517578,"completed_captures":130}}
{"TimeUS":1746405021828604,"Img":103,"Points":[],"Epoch":1746404605541986,"Delta_t":183,"Feedback":{"time_usec":416286435,"img_idx":337,"lat":500107002,"lng":-1107175378,"alt_msl":693.2899780273438,"alt_rel":0.0,"roll":-1.0299999713897705,"pitch":-0.6100000143051147,"yaw":26.709999084472656,"completed_captures":131}}
{"TimeUS":1746405022048632,"Img":104,"Points":[],"Epoch":1746404605542169,"Delta_t":183,"Feedback":{"time_usec":416506280,"img_idx":338,"lat":500107002,"lng":-1107175378,"alt_msl":693.25,"alt_rel":0.0,"roll":-1.0099999904632568,"pitch":-0.6399999856948853,"yaw":26.81999969482422,"completed_captures":132}}
{"TimeUS":1746405022268482,"Img":105,"Points":[],"Epoch":1746404605542352,"Delta_t":-352,"Feedback":{"time_usec":416726482,"img_idx":339,"lat":500107002,"lng":-1107175378,"alt_msl":693.2899780273438,"alt_rel":0.0,"roll":-1.0199999809265137,"pitch":-0.6599999666213989,"yaw":26.78999900817871,"completed_captures":133}}
{"TimeUS":1746405022488688,"Img":106,"Points":[],"Epoch":1746404605542000,"Delta_t":518,"Feedback":{"time_usec":416946170,"img_idx":340,"lat":500107004,"lng":-1107175379,"alt_msl":693.4099731445313,"alt_rel":0.0,"roll":-1.0299999713897705,"pitch":-0.6599999666213989,"yaw":26.76999855041504,"completed_captures":134}}
{"TimeUS":1746405022708382,"Img":107,"Points":[],"Epoch":1746404605542518,"Delta_t":-575,"Feedback":{"time_usec":417166439,"img_idx":341,"lat":500107005,"lng":-1107175377,"alt_msl":693.4199829101563,"alt_rel":0.0,"roll":-1.0499999523162842,"pitch":-0.6299999952316284,"yaw":26.68000030517578,"completed_captures":135}}
{"TimeUS":1746405022928655,"Img":108,"Points":[],"Epoch":1746404605541943,"Delta_t":272,"Feedback":{"time_usec":417386440,"img_idx":342,"lat":500107009,"lng":-1107175376,"alt_msl":693.4400024414063,"alt_rel":0.0,"roll":-1.0099999904632568,"pitch":-0.6399999856948853,"yaw":26.75,"completed_captures":136}}
{"TimeUS":1746405023148661,"Img":109,"Points":[],"Epoch":1746404605542215,"Delta_t":117,"Feedback":{"time_usec":417606329,"img_idx":343,"lat":500107011,"lng":-1107175378,"alt_msl":693.3800048828125,"alt_rel":0.0,"roll":-0.9899999499320984,"pitch":-0.6499999761581421,"yaw":26.799999237060547,"completed_captures":137}}
{"TimeUS":1746405023368555,"Img":110,"Points":[],"Epoch":1746404605542332,"Delta_t":-285,"Feedback":{"time_usec":417826508,"img_idx":344,"lat":500107012,"lng":-1107175389,"alt_msl":693.4299926757813,"alt_rel":0.0,"roll":-0.9599999785423279,"pitch":-0.6200000047683716,"yaw":26.81999969482422,"completed_captures":138}}
{"TimeUS":1746405023588739,"Img":111,"Points":[],"Epoch":1746404605542047,"Delta_t":473,"Feedback":{"time_usec":418046219,"img_idx":345,"lat":500107013,"lng":-1107175390,"alt_msl":693.5,"alt_rel":0.0,"roll":-0.9699999690055847,"pitch":-0.6399999856948853,"yaw":26.84000015258789,"completed_captures":139}}
{"TimeUS":1746405023808455,"Img":112,"Points":[],"Epoch":1746404605542520,"Delta_t":-508,"Feedback":{"time_usec":418266443,"img_idx":346,"lat":500107016,"lng":-1107175393,"alt_msl":693.5899658203125,"alt_rel":0.0,"roll":-0.9899999499320984,"pitch":-0.6599999666213989,"yaw":26.849998474121094,"completed_captures":140}}
{"TimeUS":1746405024028684,"Img":113,"Points":[],"Epoch":1746404605542012,"Delta_t":228,"Feedback":{"time_usec":418486444,"img_idx":347,"lat":500107020,"lng":-1107175400,"alt_msl":693.6799926757813,"alt_rel":0.0,"roll":-1.0199999809265137,"pitch":-0.6899999976158142,"yaw":26.849998474121094,"completed_captures":141}}
{"TimeUS":1746405024248689,"Img":114,"Points":[],"Epoch":1746404605542240,"Delta_t":160,"Feedback":{"time_usec":418706289,"img_idx":348,"lat":500107023,"lng":-1107175408,"alt_msl":693.6900024414063,"alt_rel":0.0,"roll":-1.0199999809265137,"pitch":-0.6800000071525574,"yaw":26.809999465942383,"completed_captures":142}}
{"TimeUS":1746405024468539,"Img":115,"Points":[],"Epoch":1746404605542400,"Delta_t":-374,"Feedback":{"time_usec":418926513,"img_idx":349,"lat":500107027,"lng":-1107175411,"alt_msl":693.6900024414063,"alt_rel":0.0,"roll":-1.0299999713897705,"pitch":-0.6699999570846558,"yaw":26.76999855041504,"completed_captures":143}}
{"TimeUS":1746405024688768,"Img":116,"Points":[],"Epoch":1746404605542026,"Delta_t":585,"Feedback":{"time_usec":419146157,"img_idx":350,"lat":500107026,"lng":-1107175407,"alt_msl":693.72998046875,"alt_rel":0.0,"roll":-1.0299999713897705,"pitch":-0.6699999570846558,"yaw":26.779998779296875,"completed_captures":144}}
{"TimeUS":1746405024908417,"Img":117,"Points":[],"Epoch":1746404605542611,"Delta_t":-597,"Feedback":{"time_usec":419366403,"img_idx":351,"lat":500107028,"lng":-1107175405,"alt_msl":693.8299560546875,"alt_rel":0.0,"roll":-1.0299999713897705,"pitch":-0.6800000071525574,"yaw":26.779998779296875,"completed_captures":145}}
{"TimeUS":1746405025128668,"Img":118,"Points":[],"Epoch":1746404605542014,"Delta_t":183,"Feedback":{"time_usec":419586471,"img_idx":352,"lat":500107030,"lng":-1107175405,"alt_msl":693.8800048828125,"alt_rel":0.0,"roll":-1.0399999618530273,"pitch":-0.6800000071525574,"yaw":26.76999855041504,"completed_captures":146}}
{"TimeUS":1746405025348740,"Img":119,"Points":[],"Epoch":1746404605542197,"Delta_t":272,"Feedback":{"time_usec":419806271,"img_idx":353,"lat":500107026,"lng":-1107175407,"alt_msl":693.7899780273438,"alt_rel":0.0,"roll":-1.0399999618530273,"pitch":-0.6699999570846558,"yaw":26.76999855041504,"completed_captures":147}}
{"TimeUS":1746405025568545,"Img":120,"Points":[],"Epoch":1746404605542469,"Delta_t":-374,"Feedback":{"time_usec":420026450,"img_idx":354,"lat":500107028,"lng":-1107175408,"alt_msl":693.8800048828125,"alt_rel":0.0,"roll":-1.0499999523162842,"pitch":-0.6800000071525574,"yaw":26.76999855041504,"completed_captures":148}}
{"TimeUS":1746405025788729,"Img":121,"Points":[],"Epoch":1746404605542095,"Delta_t":495,"Feedback":{"time_usec":420246139,"img_idx":355,"lat":500107028,"lng":-1107175407,"alt_msl":693.9199829101563,"alt_rel":0.0,"roll":-1.0299999713897705,"pitch":-0.6699999570846558,"yaw":26.78999900817871,"completed_captures":149}}
{"TimeUS":1746405026008423,"Img":122,"Points":[],"Epoch":1746404605542590,"Delta_t":-641,"Feedback":{"time_usec":420466474,"img_idx":356,"lat":500107031,"lng":-1107175407,"alt_msl":694.0,"alt_rel":0.0,"roll":-1.0499999523162842,"pitch":-0.6699999570846558,"yaw":26.78999900817871,"completed_captures":150}}
{"TimeUS":1746405026228763,"Img":123,"Points":[],"Epoch":1746404605541949,"Delta_t":361,"Feedback":{"time_usec":420686453,"img_idx":357,"lat":500107034,"lng":-1107175409,"alt_msl":694.0299682617188,"alt_rel":0.0,"roll":-1.0499999523162842,"pitch":-0.6699999570846558,"yaw":26.779998779296875,"completed_captures":151}}
{"TimeUS":1746405026448747,"Img":124,"Points":[],"Epoch":1746404605542310,"Delta_t":206,"Feedback":{"time_usec":420906231,"img_idx":358,"lat":500107035,"lng":-1107175410,"alt_msl":694.0299682617188,"alt_rel":0.0,"roll":-1.0499999523162842,"pitch":-0.6800000071525574,"yaw":26.809999465942383,"completed_captures":152}}
{"TimeUS":1746405026668529,"Img":125,"Points":[],"Epoch":1746404605542516,"Delta_t":-508,"Feedback":{"time_usec":421126521,"img_idx":359,"lat":500107039,"lng":-1107175411,"alt_msl":694.0700073242188,"alt_rel":0.0,"roll":-1.0399999618530273,"pitch":-0.6800000071525574,"yaw":26.829999923706055,"completed_captures":153}}
{"TimeUS":1746405026888825,"Img":126,"Points":[],"Epoch":1746404605542008,"Delta_t":629,"Feedback":{"time_usec":421346188,"img_idx":360,"lat":500107041,"lng":-1107175412,"alt_msl":694.0599975585938,"alt_rel":0.0,"roll":-1.059999942779541,"pitch":-0.699999988079071,"yaw":26.84000015258789,"completed_captures":154}}
{"TimeUS":1746405027108496,"Img":127,"Points":[],"Epoch":1746404605542637,"Delta_t":-597,"Feedback":{"time_usec":421566456,"img_idx":361,"lat":500107042,"lng":-1107175411,"alt_msl":694.0399780273438,"alt_rel":0.0,"roll":-1.0399999618530273,"pitch":-0.6800000071525574,"yaw":26.829999923706055,"completed_captures":155}}
{"TimeUS":1746405027328770,"Img":128,"Points":[],"Epoch":1746404605542040,"Delta_t":273,"Feedback":{"time_usec":421786457,"img_idx":362,"lat":500107043,"lng":-1107175413,"alt_msl":694.0700073242188,"alt_rel":0.0,"roll":-1.0499999523162842,"pitch":-0.6800000071525574,"yaw":26.829999923706055,"completed_captures":156}}
{"TimeUS":1746405027548775,"Img":129,"Points":[],"Epoch":1746404605542313,"Delta_t":205,"Feedback":{"time_usec":422006257,"img_idx":363,"lat":500107045,"lng":-1107175412,"alt_msl":694.0899658203125,"alt_rel":0.0,"roll":-1.0399999618530273,"pitch":-0.6599999666213989,"yaw":26.81999969482422,"completed_captures":157}}
{"TimeUS":1746405027768580,"Img":130,"Points":[],"Epoch":1746404605542518,"Delta_t":-419,"Feedback":{"time_usec":422226481,"img_idx":364,"lat":500107057,"lng":-1107175413,"alt_msl":694.22998046875,"alt_rel":0.0,"roll":-1.0499999523162842,"pitch":-0.6699999570846558,"yaw":26.78999900817871,"completed_captures":158}}
{"TimeUS":1746405027988809,"Img":131,"Points":[],"Epoch":1746404605542099,"Delta_t":496,"Feedback":{"time_usec":422446214,"img_idx":365,"lat":500107066,"lng":-1107175418,"alt_msl":694.22998046875,"alt_rel":0.0,"roll":-1.0499999523162842,"pitch":-0.6899999976158142,"yaw":26.84000015258789,"completed_captures":159}}
{"TimeUS":1746405028208547,"Img":132,"Points":[],"Epoch":1746404605542595,"Delta_t":-509,"Feedback":{"time_usec":422666461,"img_idx":366,"lat":500107076,"lng":-1107175421,"alt_msl":694.2999877929688,"alt_rel":0.0,"roll":-1.0399999618530273,"pitch":-0.6899999976158142,"yaw":26.84000015258789,"completed_captures":160}}
{"TimeUS":1746405028428798,"Img":133,"Points":[],"Epoch":1746404605542086,"Delta_t":205,"Feedback":{"time_usec":422886507,"img_idx":367,"lat":500107080,"lng":-1107175420,"alt_msl":694.239990234375,"alt_rel":0.0,"roll":-1.0499999523162842,"pitch":-0.6899999976158142,"yaw":26.809999465942383,"completed_captures":161}}
{"TimeUS":1746405028648849,"Img":134,"Points":[],"Epoch":1746404605542291,"Delta_t":274,"Feedback":{"time_usec":423106284,"img_idx":368,"lat":500107083,"lng":-1107175420,"alt_msl":694.22998046875,"alt_rel":0.0,"roll":-1.0499999523162842,"pitch":-0.6699999570846558,"yaw":26.779998779296875,"completed_captures":162}}
{"TimeUS":1746405028868631,"Img":135,"Points":[],"Epoch":1746404605542565,"Delta_t":-397,"Feedback":{"time_usec":423326463,"img_idx":369,"lat":500107084,"lng":-1107175421,"alt_msl":694.1499633789063,"alt_rel":0.0,"roll":-1.0499999523162842,"pitch":-0.6699999570846558,"yaw":26.779998779296875,"completed_captures":163}}
{"TimeUS":1746405029088815,"Img":136,"Points":[],"Epoch":1746404605542168,"Delta_t":428,"Feedback":{"time_usec":423546219,"img_idx":370,"lat":500107089,"lng":-1107175418,"alt_msl":694.0999755859375,"alt_rel":0.0,"roll":-1.0499999523162842,"pitch":-0.6499999761581421,"yaw":26.739999771118164,"completed_captures":164}}
{"TimeUS":1746405029308576,"Img":137,"Points":[],"Epoch":1746404605542596,"Delta_t":-507,"Feedback":{"time_usec":423766487,"img_idx":371,"lat":500107096,"lng":-1107175412,"alt_msl":694.2099609375,"alt_rel":0.0,"roll":-1.059999942779541,"pitch":-0.6399999856948853,"yaw":26.76999855041504,"completed_captures":165}}
{"TimeUS":1746405029528849,"Img":138,"Points":[],"Epoch":1746404605542089,"Delta_t":138,"Feedback":{"time_usec":423986622,"img_idx":372,"lat":500107103,"lng":-1107175409,"alt_msl":694.2899780273438,"alt_rel":0.0,"roll":-1.0699999332427979,"pitch":-0.6299999952316284,"yaw":26.68000030517578,"completed_captures":166}}
{"TimeUS":1746405029748989,"Img":139,"Points":[],"Epoch":1746404605542227,"Delta_t":496,"Feedback":{"time_usec":424206266,"img_idx":373,"lat":500107108,"lng":-1107175403,"alt_msl":694.3200073242188,"alt_rel":0.0,"roll":-1.0699999332427979,"pitch":-0.6200000047683716,"yaw":26.639999389648438,"completed_captures":167}}
{"TimeUS":1746405029968638,"Img":140,"Points":[],"Epoch":1746404605542723,"Delta_t":-575,"Feedback":{"time_usec":424426490,"img_idx":374,"lat":500107109,"lng":-1107175400,"alt_msl":694.3299560546875,"alt_rel":0.0,"roll":-1.0699999332427979,"pitch":-0.6299999952316284,"yaw":26.649999618530273,"completed_captures":168}}
{"TimeUS":1746405030188866,"Img":141,"Points":[],"Epoch":1746404605542148,"Delta_t":517,"Feedback":{"time_usec":424646201,"img_idx":375,"lat":500107113,"lng":-1107175398,"alt_msl":694.3399658203125,"alt_rel":0.0,"roll":-1.0799999237060547,"pitch":-0.6299999952316284,"yaw":26.65999984741211,"completed_captures":169}}
{"TimeUS":1746405030408582,"Img":142,"Points":[],"Epoch":1746404605542665,"Delta_t":-508,"Feedback":{"time_usec":424866425,"img_idx":376,"lat":500107118,"lng":-1107175396,"alt_msl":694.4299926757813,"alt_rel":0.0,"roll":-1.0799999237060547,"pitch":-0.6299999952316284,"yaw":26.65999984741211,"completed_captures":170}}
{"TimeUS":1746405030628811,"Img":143,"Points":[],"Epoch":1746404605542157,"Delta_t":117,"Feedback":{"time_usec":425086537,"img_idx":377,"lat":500107119,"lng":-1107175393,"alt_msl":694.4400024414063,"alt_rel":0.0,"roll":-1.0799999237060547,"pitch":-0.6299999952316284,"yaw":26.649999618530273,"completed_captures":171}}
{"TimeUS":1746405030848928,"Img":144,"Points":[],"Epoch":1746404605542274,"Delta_t":384,"Feedback":{"time_usec":425306270,"img_idx":378,"lat":500107117,"lng":-1107175389,"alt_msl":694.3499755859375,"alt_rel":0.0,"roll":-1.0799999237060547,"pitch":-0.6299999952316284,"yaw":26.649999618530273,"completed_captures":172}}
{"TimeUS":1746405031068666,"Img":145,"Points":[],"Epoch":1746404605542658,"Delta_t":-464,"Feedback":{"time_usec":425526472,"img_idx":379,"lat":500107114,"lng":-1107175386,"alt_msl":694.2899780273438,"alt_rel":0.0,"roll":-1.090000033378601,"pitch":-0.6200000047683716,"yaw":26.639999389648438,"completed_captures":173}}
{"TimeUS":1746405031288873,"Img":146,"Points":[],"Epoch":1746404605542194,"Delta_t":474,"Feedback":{"time_usec":425746205,"img_idx":380,"lat":500107111,"lng":-1107175376,"alt_msl":694.219970703125,"alt_rel":0.0,"roll":-1.0799999237060547,"pitch":-0.6299999952316284,"yaw":26.649999618530273,"completed_captures":174}}
{"TimeUS":1746405031508611,"Img":147,"Points":[],"Epoch":1746404605542668,"Delta_t":-486,"Feedback":{"time_usec":425966429,"img_idx":381,"lat":500107109,"lng":-1107175369,"alt_msl":694.1099853515625,"alt_rel":0.0,"roll":-1.0799999237060547,"pitch":-0.6299999952316284,"yaw":26.649999618530273,"completed_captures":175}}
{"TimeUS":1746405031728840,"Img":148,"Points":[],"Epoch":1746404605542182,"Delta_t":183,"Feedback":{"time_usec":426186475,"img_idx":382,"lat":500107106,"lng":-1107175363,"alt_msl":694.0199584960938,"alt_rel":0.0,"roll":-1.0799999237060547,"pitch":-0.6299999952316284,"yaw":26.639999389648438,"completed_captures":176}}
{"TimeUS":1746405031948890,"Img":149,"Points":[],"Epoch":1746404605542365,"Delta_t":228,"Feedback":{"time_usec":426406297,"img_idx":383,"lat":500107100,"lng":-1107175359,"alt_msl":693.9299926757813,"alt_rel":0.0,"roll":-1.0799999237060547,"pitch":-0.6299999952316284,"yaw":26.639999389648438,"completed_captures":177}}
{"TimeUS":1746405032168717,"Img":150,"Points":[],"Epoch":1746404605542593,"Delta_t":-398,"Feedback":{"time_usec":426626522,"img_idx":384,"lat":500107083,"lng":-1107175343,"alt_msl":693.7000122070313,"alt_rel":0.0,"roll":-1.0799999237060547,"pitch":-0.6399999856948853,"yaw":26.639999389648438,"completed_captures":178}}
{"TimeUS":1746405032388946,"Img":151,"Points":[],"Epoch":1746404605542195,"Delta_t":564,"Feedback":{"time_usec":426846187,"img_idx":385,"lat":500107081,"lng":-1107175340,"alt_msl":693.6599731445313,"alt_rel":0.0,"roll":-1.090000033378601,"pitch":-0.6299999952316284,"yaw":26.619998931884766,"completed_captures":179}}
{"TimeUS":1746405032608617,"Img":152,"Points":[],"Epoch":1746404605542759,"Delta_t":-620,"Feedback":{"time_usec":427066478,"img_idx":386,"lat":500107080,"lng":-1107175337,"alt_msl":693.6300048828125,"alt_rel":0.0,"roll":-1.090000033378601,"pitch":-0.6200000047683716,"yaw":26.59000015258789,"completed_captures":180}}
{"TimeUS":1746405032828913,"Img":153,"Points":[],"Epoch":1746404605542139,"Delta_t":317,"Feedback":{"time_usec":427286457,"img_idx":387,"lat":500107080,"lng":-1107175334,"alt_msl":693.5299682617188,"alt_rel":0.0,"roll":-1.0699999332427979,"pitch":-0.6100000143051147,"yaw":26.6299991607666,"completed_captures":181}}
{"TimeUS":1746405033048896,"Img":154,"Points":[],"Epoch":1746404605542456,"Delta_t":183,"Feedback":{"time_usec":427506257,"img_idx":388,"lat":500107080,"lng":-1107175326,"alt_msl":693.4199829101563,"alt_rel":0.0,"roll":-1.0399999618530273,"pitch":-0.5999999642372131,"yaw":26.65999984741211,"completed_captures":182}}
{"TimeUS":1746405033268701,"Img":155,"Points":[],"Epoch":1746404605542639,"Delta_t":-396,"Feedback":{"time_usec":427726458,"img_idx":389,"lat":500107079,"lng":-1107175319,"alt_msl":693.3200073242188,"alt_rel":0.0,"roll":-1.059999942779541,"pitch":-0.5799999833106995,"yaw":26.59000015258789,"completed_captures":183}}
{"TimeUS":1746405033488908,"Img":156,"Points":[],"Epoch":1746404605542243,"Delta_t":473,"Feedback":{"time_usec":427946192,"img_idx":390,"lat":500107078,"lng":-1107175315,"alt_msl":693.2899780273438,"alt_rel":0.0,"roll":-1.059999942779541,"pitch":-0.5799999833106995,"yaw":26.579999923706055,"completed_captures":184}}
{"TimeUS":1746405033708646,"Img":157,"Points":[],"Epoch":1746404605542716,"Delta_t":-508,"Feedback":{"time_usec":428166438,"img_idx":391,"lat":500107075,"lng":-1107175312,"alt_msl":693.219970703125,"alt_rel":0.0,"roll":-1.0399999618530273,"pitch":-0.550000011920929,"yaw":26.579999923706055,"completed_captures":185}}
{"TimeUS":1746405033928897,"Img":158,"Points":[],"Epoch":1746404605542208,"Delta_t":116,"Feedback":{"time_usec":428386573,"img_idx":392,"lat":500107072,"lng":-1107175308,"alt_msl":693.1099853515625,"alt_rel":0.0,"roll":-1.0699999332427979,"pitch":-0.5699999928474426,"yaw":26.510000228881836,"completed_captures":186}}
{"TimeUS":1746405034149037,"Img":159,"Points":[],"Epoch":1746404605542324,"Delta_t":407,"Feedback":{"time_usec":428606306,"img_idx":393,"lat":500107069,"lng":-1107175307,"alt_msl":693.0299682617188,"alt_rel":0.0,"roll":-1.100000023841858,"pitch":-0.5899999737739563,"yaw":26.489999771118164,"completed_captures":187}}
{"TimeUS":1746405034368775,"Img":160,"Points":[],"Epoch":1746404605542731,"Delta_t":-443,"Feedback":{"time_usec":428826487,"img_idx":394,"lat":500107057,"lng":-1107175299,"alt_msl":692.8299560546875,"alt_rel":0.0,"roll":-1.059999942779541,"pitch":-0.5899999737739563,"yaw":26.56999969482422,"completed_captures":188}}
{"TimeUS":1746405034588959,"Img":161,"Points":[],"Epoch":1746404605542288,"Delta_t":475,"Feedback":{"time_usec":429046196,"img_idx":395,"lat":500107055,"lng":-1107175297,"alt_msl":692.7899780273438,"alt_rel":0.0,"roll":-1.0499999523162842,"pitch":-0.6200000047683716,"yaw":26.68000030517578,"completed_captures":189}}
{"TimeUS":1746405034808675,"Img":162,"Points":[],"Epoch":1746404605542763,"Delta_t":-530,"Feedback":{"time_usec":429266442,"img_idx":396,"lat":500107055,"lng":-1107175290,"alt_msl":692.6799926757813,"alt_rel":0.0,"roll":-1.0399999618530273,"pitch":-0.6299999952316284,"yaw":26.76999855041504,"completed_captures":190}}
{"TimeUS":1746405035028926,"Img":163,"Points":[],"Epoch":1746404605542233,"Delta_t":225,"Feedback":{"time_usec":429486468,"img_idx":397,"lat":500107052,"lng":-1107175281,"alt_msl":692.5199584960938,"alt_rel":0.0,"roll":-1.0499999523162842,"pitch":-0.6699999570846558,"yaw":26.84000015258789,"completed_captures":191}}
{"TimeUS":1746405035248954,"Img":164,"Points":[],"Epoch":1746404605542458,"Delta_t":230,"Feedback":{"time_usec":429706266,"img_idx":398,"lat":500107053,"lng":-1107175280,"alt_msl":692.4500122070313,"alt_rel":0.0,"roll":-1.0699999332427979,"pitch":-0.6800000071525574,"yaw":26.81999969482422,"completed_captures":192}}
{"TimeUS":1746405035468759,"Img":165,"Points":[],"Epoch":1746404605542688,"Delta_t":-419,"Feedback":{"time_usec":429926490,"img_idx":399,"lat":500107048,"lng":-1107175275,"alt_msl":692.2099609375,"alt_rel":0.0,"roll":-1.0799999237060547,"pitch":-0.6399999856948853,"yaw":26.68000030517578,"completed_captures":193}}
{"TimeUS":1746405035688987,"Img":166,"Points":[],"Epoch":1746404605542269,"Delta_t":562,"Feedback":{"time_usec":430146156,"img_idx":400,"lat":500107040,"lng":-1107175270,"alt_msl":692.0299682617188,"alt_rel":0.0,"roll":-1.0699999332427979,"pitch":-0.6699999570846558,"yaw":26.779998779296875,"completed_captures":194}}
{"TimeUS":1746405035908659,"Img":167,"Points":[],"Epoch":1746404605542831,"Delta_t":-663,"Feedback":{"time_usec":430366491,"img_idx":401,"lat":500107037,"lng":-1107175265,"alt_msl":691.9599609375,"alt_rel":0.0,"roll":-1.0699999332427979,"pitch":-0.7099999785423279,"yaw":26.8799991607666,"completed_captures":195}}
{"TimeUS":1746405036128999,"Img":168,"Points":[],"Epoch":1746404605542168,"Delta_t":383,"Feedback":{"time_usec":430586448,"img_idx":402,"lat":500107030,"lng":-1107175263,"alt_msl":691.8599853515625,"alt_rel":0.0,"roll":-1.090000033378601,"pitch":-0.6899999976158142,"yaw":26.799999237060547,"completed_captures":196}}
{"TimeUS":1746405036348960,"Img":169,"Points":[],"Epoch":1746404605542551,"Delta_t":94,"Feedback":{"time_usec":430806315,"img_idx":403,"lat":500107022,"lng":-1107175255,"alt_msl":691.760009765625,"alt_rel":0.0,"roll":-1.0799999237060547,"pitch":-0.6800000071525574,"yaw":26.75,"completed_captures":197}}
{"TimeUS":1746405036568832,"Img":170,"Points":[],"Epoch":1746404605542645,"Delta_t":-307,"Feedback":{"time_usec":431026494,"img_idx":404,"lat":500107016,"lng":-1107175248,"alt_msl":691.5999755859375,"alt_rel":0.0,"roll":-1.100000023841858,"pitch":-0.6800000071525574,"yaw":26.69999885559082,"completed_captures":198}}
{"TimeUS":1746405036789016,"Img":171,"Points":[],"Epoch":1746404605542338,"Delta_t":495,"Feedback":{"time_usec":431246183,"img_idx":405,"lat":500107012,"lng":-1107175245,"alt_msl":691.5399780273438,"alt_rel":0.0,"roll":-1.090000033378601,"pitch":-0.6800000071525574,"yaw":26.709999084472656,"completed_captures":199}}
{"TimeUS":1746405037008710,"Img":172,"Points":[],"Epoch":1746404605542833,"Delta_t":-574,"Feedback":{"time_usec":431466451,"img_idx":406,"lat":500107009,"lng":-1107175243,"alt_msl":691.5199584960938,"alt_rel":0.0,"roll":-1.0699999332427979,"pitch":-0.6800000071525574,"yaw":26.76999855041504,"completed_captures":200}}
{"TimeUS":1746405037228983,"Img":173,"Points":[],"Epoch":1746404605542259,"Delta_t":227,"Feedback":{"time_usec":431686497,"img_idx":407,"lat":500107005,"lng":-1107175240,"alt_msl":691.4599609375,"alt_rel":0.0,"roll":-1.0699999332427979,"pitch":-0.6200000047683716,"yaw":26.619998931884766,"completed_captures":201}}
{"TimeUS":1746405037449033,"Img":174,"Points":[],"Epoch":1746404605542486,"Delta_t":295,"Feedback":{"time_usec":431906252,"img_idx":408,"lat":500106998,"lng":-1107175235,"alt_msl":691.3900146484375,"alt_rel":0.0,"roll":-1.090000033378601,"pitch":-0.5600000023841858,"yaw":26.43000030517578,"completed_captures":202}}
{"TimeUS":1746405037668794,"Img":175,"Points":[],"Epoch":1746404605542781,"Delta_t":-463,"Feedback":{"time_usec":432126476,"img_idx":409,"lat":500106993,"lng":-1107175228,"alt_msl":691.3499755859375,"alt_rel":0.0,"roll":-1.1100000143051147,"pitch":-0.5299999713897705,"yaw":26.35999870300293,"completed_captures":203}}
{"TimeUS":1746405037889022,"Img":176,"Points":[],"Epoch":1746404605542318,"Delta_t":450,"Feedback":{"time_usec":432346254,"img_idx":410,"lat":500106987,"lng":-1107175222,"alt_msl":691.2699584960938,"alt_rel":0.0,"roll":-1.1200000047683716,"pitch":-0.5699999928474426,"yaw":26.389999389648438,"completed_captures":204}}
{"TimeUS":1746405038108805,"Img":177,"Points":[],"Epoch":1746404605542768,"Delta_t":-374,"Feedback":{"time_usec":432566411,"img_idx":411,"lat":500106981,"lng":-1107175215,"alt_msl":691.1599731445313,"alt_rel":0.0,"roll":-1.149999976158142,"pitch":-0.5600000023841858,"yaw":26.329999923706055,"completed_captures":205}}
{"TimeUS":1746405038328967,"Img":178,"Points":[],"Epoch":1746404605542394,"Delta_t":94,"Feedback":{"time_usec":432786479,"img_idx":412,"lat":500106977,"lng":-1107175210,"alt_msl":691.0599975585938,"alt_rel":0.0,"roll":-1.149999976158142,"pitch":-0.5999999642372131,"yaw":26.34000015258789,"completed_captures":206}}
{"TimeUS":1746405038549040,"Img":179,"Points":[],"Epoch":1746404605542488,"Delta_t":273,"Feedback":{"time_usec":433006279,"img_idx":413,"lat":500106977,"lng":-1107175202,"alt_msl":690.8699951171875,"alt_rel":0.0,"roll":-1.159999966621399,"pitch":-0.5999999642372131,"yaw":26.35999870300293,"completed_captures":207}}
{"TimeUS":1746405038768845,"Img":180,"Points":[],"Epoch":1746404605542761,"Delta_t":-419,"Feedback":{"time_usec":433226503,"img_idx":414,"lat":500106974,"lng":-1107175197,"alt_msl":690.7000122070313,"alt_rel":0.0,"roll":-1.159999966621399,"pitch":-0.5999999642372131,"yaw":26.329999923706055,"completed_captures":208}}
{"TimeUS":1746405038989073,"Img":181,"Points":[],"Epoch":1746404605542342,"Delta_t":540,"Feedback":{"time_usec":433446191,"img_idx":415,"lat":500106969,"lng":-1107175195,"alt_msl":690.6400146484375,"alt_rel":0.0,"roll":-1.1699999570846558,"pitch":-0.5899999737739563,"yaw":26.299999237060547,"completed_captures":209}}
{"TimeUS":1746405039208767,"Img":182,"Points":[],"Epoch":1746404605542882,"Delta_t":-553,"Feedback":{"time_usec":433666438,"img_idx":416,"lat":500106962,"lng":-1107175189,"alt_msl":690.5399780273438,"alt_rel":0.0,"roll":-1.159999966621399,"pitch":-0.5899999737739563,"yaw":26.35999870300293,"completed_captures":210}}
{"TimeUS":1746405039429018,"Img":183,"Points":[],"Epoch":1746404605542329,"Delta_t":206,"Feedback":{"time_usec":433886483,"img_idx":417,"lat":500106959,"lng":-1107175185,"alt_msl":690.5,"alt_rel":0.0,"roll":-1.159999966621399,"pitch":-0.6100000143051147,"yaw":26.399999618530273,"completed_captures":211}}
{"TimeUS":1746405039649068,"Img":184,"Points":[],"Epoch":1746404605542535,"Delta_t":227,"Feedback":{"time_usec":434106306,"img_idx":418,"lat":500106962,"lng":-1107175184,"alt_msl":690.4099731445313,"alt_rel":0.0,"roll":-1.159999966621399,"pitch":-0.6499999761581421,"yaw":26.479999542236328,"completed_captures":212}}
{"TimeUS":1746405039868896,"Img":185,"Points":[],"Epoch":1746404605542762,"Delta_t":-440,"Feedback":{"time_usec":434326574,"img_idx":419,"lat":500106962,"lng":-1107175176,"alt_msl":690.1699829101563,"alt_rel":0.0,"roll":-1.1399999856948853,"pitch":-0.6699999570846558,"yaw":26.529998779296875,"completed_captures":213}}
{"TimeUS":1746405040089169,"Img":186,"Points":[],"Epoch":1746404605542322,"Delta_t":673,"Feedback":{"time_usec":434546174,"img_idx":420,"lat":500106956,"lng":-1107175171,"alt_msl":690.0,"alt_rel":0.0,"roll":-1.1399999856948853,"pitch":-0.699999988079071,"yaw":26.6299991607666,"completed_captures":214}}
{"TimeUS":1746405040308773,"Img":187,"Points":[],"Epoch":1746404605542995,"Delta_t":-664,"Feedback":{"time_usec":434766442,"img_idx":421,"lat":500106948,"lng":-1107175166,"alt_msl":689.8599853515625,"alt_rel":0.0,"roll":-1.1200000047683716,"pitch":-0.7199999690055847,"yaw":26.719999313354492,"completed_captures":215}}
{"TimeUS":1746405040529047,"Img":188,"Points":[],"Epoch":1746404605542331,"Delta_t":139,"Feedback":{"time_usec":434986577,"img_idx":422,"lat":500106938,"lng":-1107175162,"alt_msl":689.6699829101563,"alt_rel":0.0,"roll":-1.100000023841858,"pitch":-0.7099999785423279,"yaw":26.75,"completed_captures":216}}
{"TimeUS":1746405040749186,"Img":189,"Points":[],"Epoch":1746404605542470,"Delta_t":427,"Feedback":{"time_usec":435206289,"img_idx":423,"lat":500106910,"lng":-1107175148,"alt_msl":689.2899780273438,"alt_rel":0.0,"roll":-1.1100000143051147,"pitch":-0.6399999856948853,"yaw":26.549999237060547,"completed_captures":217}}
{"TimeUS":1746405040968902,"Img":190,"Points":[],"Epoch":1746404605542897,"Delta_t":-484,"Feedback":{"time_usec":435426489,"img_idx":424,"lat":500106897,"lng":-1107175140,"alt_msl":689.1199951171875,"alt_rel":0.0,"roll":-1.1100000143051147,"pitch":-0.6599999666213989,"yaw":26.619998931884766,"completed_captures":218}}
