{"TimeUS":1746400192255317,"Img":2,"Points":[],"Epoch":1746399644743525,"Delta_t":89,"Feedback":{"time_usec":547511703,"img_idx":5,"lat":492622098,"lng":-1232499676,"alt_msl":119.58999633789063,"alt_rel":-1.4299999475479126,"roll":-13.170000076293945,"pitch":-41.40999984741211,"yaw":63.28999710083008,"completed_captures":366}}
{"TimeUS":1746400192475768,"Img":3,"Points":[],"Epoch":1746399644743614,"Delta_t":5,"Feedback":{"time_usec":547732149,"img_idx":6,"lat":492622099,"lng":-1232499676,"alt_msl":119.5999984741211,"alt_rel":-1.4199999570846558,"roll":-12.779999732971191,"pitch":-41.20000076293945,"yaw":62.959999084472656,"completed_captures":367}}
{"TimeUS":1746400192695640,"Img":4,"Points":[],"Epoch":1746399644743619,"Delta_t":5,"Feedback":{"time_usec":547952016,"img_idx":7,"lat":492622100,"lng":-1232499677,"alt_msl":119.58999633789063,"alt_rel":-1.4299999475479126,"roll":-12.6899995803833,"pitch":-41.37999725341797,"yaw":62.65999984741211,"completed_captures":368}}
{"TimeUS":1746400192915245,"Img":5,"Points":[],"Epoch":1746399644743624,"Delta_t":4,"Feedback":{"time_usec":548171617,"img_idx":8,"lat":492622102,"lng":-1232499679,"alt_msl":119.5999984741211,"alt_rel":-1.4199999570846558,"roll":-12.889999389648438,"pitch":-41.25,"yaw":62.47999954223633,"completed_captures":369}}
{"TimeUS":1746400193135585,"Img":6,"Points":[],"Epoch":1746399644743628,"Delta_t":7,"Feedback":{"time_usec":548391950,"img_idx":9,"lat":492622104,"lng":-1232499680,"alt_msl":119.58999633789063,"alt_rel":-1.4299999475479126,"roll":-12.90999984741211,"pitch":-41.2599983215332,"yaw":62.28999710083008,"completed_captures":370}}
{"TimeUS":1746400193355279,"Img":7,"Points":[],"Epoch":1746399644743635,"Delta_t":6,"Feedback":{"time_usec":548611638,"img_idx":10,"lat":492622105,"lng":-1232499681,"alt_msl":119.57999420166016,"alt_rel":-1.4399999380111694,"roll":-12.899999618530273,"pitch":-41.21999740600586,"yaw":62.1099967956543,"completed_captures":371}}
{"TimeUS":1746400193575797,"Img":8,"Points":[],"Epoch":1746399644743641,"Delta_t":4,"Feedback":{"time_usec":548832152,"img_idx":11,"lat":492622105,"lng":-1232499683,"alt_msl":119.57999420166016,"alt_rel":-1.4399999380111694,"roll":-12.809999465942383,"pitch":-41.029998779296875,"yaw":61.72999954223633,"completed_captures":372}}
{"TimeUS":1746400193795558,"Img":9,"Points":[],"Epoch":1746399644743645,"Delta_t":6,"Feedback":{"time_usec":549051907,"img_idx":12,"lat":492622105,"lng":-1232499684,"alt_msl":119.56999969482422,"alt_rel":-1.4499999284744263,"roll":-13.329999923706055,"pitch":-41.349998474121094,"yaw":61.6099967956543,"completed_captures":373}}
{"TimeUS":1746400194015273,"Img":10,"Points":[],"Epoch":1746399644743651,"Delta_t":5,"Feedback":{"time_usec":549271617,"img_idx":13,"lat":492622104,"lng":-1232499685,"alt_msl":119.55999755859375,"alt_rel":-1.459999918937683,"roll":-12.449999809265137,"pitch":-41.7599983215332,"yaw":61.12999725341797,"completed_captures":374}}
{"TimeUS":1746400194235591,"Img":11,"Points":[],"Epoch":1746399644743656,"Delta_t":4,"Feedback":{"time_usec":549491931,"img_idx":14,"lat":492622105,"lng":-1232499686,"alt_msl":119.54999542236328,"alt_rel":-1.46999990940094,"roll":-10.34000015258789,"pitch":-41.65999984741211,"yaw":59.39999771118164,"completed_captures":375}}
{"TimeUS":1746400194455307,"Img":12,"Points":[],"Epoch":1746399644743660,"Delta_t":7,"Feedback":{"time_usec":549711640,"img_idx":15,"lat":492622105,"lng":-1232499687,"alt_msl":119.54999542236328,"alt_rel":-1.46999990940094,"roll":-8.829999923706055,"pitch":-42.64999771118164,"yaw":57.69999694824219,"completed_captures":376}}
{"TimeUS":1746400194675803,"Img":13,"Points":[],"Epoch":1746399644743667,"Delta_t":5,"Feedback":{"time_usec":549932131,"img_idx":16,"lat":492622106,"lng":-1232499686,"alt_msl":119.54999542236328,"alt_rel":-1.46999990940094,"roll":-6.579999923706055,"pitch":-42.06999969482422,"yaw":57.119998931884766,"completed_captures":377}}
{"TimeUS":1746400194895519,"Img":14,"Points":[],"Epoch":1746399644743672,"Delta_t":5,"Feedback":{"time_usec":550151842,"img_idx":17,"lat":492622107,"lng":-1232499685,"alt_msl":119.55999755859375,"alt_rel":-1.459999918937683,"roll":-7.839999675750732,"pitch":-40.39999771118164,"yaw":58.12999725341797,"completed_captures":378}}
{"TimeUS":1746400195115302,"Img":15,"Points":[],"Epoch":1746399644743677,"Delta_t":6,"Feedback":{"time_usec":550371619,"img_idx":18,"lat":492622107,"lng":-1232499685,"alt_msl":119.55999755859375,"alt_rel":-1.459999918937683,"roll":-7.619999885559082,"pitch":-38.15999984741211,"yaw":59.56999969482422,"completed_captures":379}}
{"TimeUS":1746400195335620,"Img":16,"Points":[],"Epoch":1746399644743683,"Delta_t":5,"Feedback":{"time_usec":550591932,"img_idx":19,"lat":492622107,"lng":-1232499686,"alt_msl":119.54000091552734,"alt_rel":-1.4800000190734863,"roll":-8.170000076293945,"pitch":-36.849998474121094,"yaw":59.0099983215332,"completed_captures":380}}
{"TimeUS":1746400195555336,"Img":17,"Points":[],"Epoch":1746399644743688,"Delta_t":6,"Feedback":{"time_usec":550811642,"img_idx":20,"lat":492622107,"lng":-1232499686,"alt_msl":119.54000091552734,"alt_rel":-1.4800000190734863,"roll":-9.630000114440918,"pitch":-34.06999969482422,"yaw":59.02000045776367,"completed_captures":381}}
{"TimeUS":1746400195775832,"Img":18,"Points":[],"Epoch":1746399644743694,"Delta_t":5,"Feedback":{"time_usec":551032133,"img_idx":21,"lat":492622108,"lng":-1232499686,"alt_msl":119.54000091552734,"alt_rel":-1.4800000190734863,"roll":-9.380000114440918,"pitch":-30.28999900817871,"yaw":58.529998779296875,"completed_captures":382}}
{"TimeUS":1746400195995615,"Img":19,"Points":[],"Epoch":1746399644743699,"Delta_t":5,"Feedback":{"time_usec":551251911,"img_idx":22,"lat":492622111,"lng":-1232499688,"alt_msl":119.54000091552734,"alt_rel":-1.4800000190734863,"roll":-7.210000038146973,"pitch":-27.279998779296875,"yaw":55.869998931884766,"completed_captures":383}}
{"TimeUS":1746400196215353,"Img":20,"Points":[],"Epoch":1746399644743704,"Delta_t":5,"Feedback":{"time_usec":551471644,"img_idx":23,"lat":492622113,"lng":-1232499689,"alt_msl":119.54999542236328,"alt_rel":-1.46999990940094,"roll":-3.6499998569488525,"pitch":-25.189998626708984,"yaw":51.97999954223633,"completed_captures":384}}
{"TimeUS":1746400196435649,"Img":21,"Points":[],"Epoch":1746399644743709,"Delta_t":6,"Feedback":{"time_usec":551691934,"img_idx":24,"lat":492622115,"lng":-1232499690,"alt_msl":119.54999542236328,"alt_rel":-1.46999990940094,"roll":-1.6399999856948853,"pitch":-23.76999855041504,"yaw":48.68000030517578,"completed_captures":385}}
{"TimeUS":1746400196655454,"Img":22,"Points":[],"Epoch":1746399644743715,"Delta_t":5,"Feedback":{"time_usec":551911734,"img_idx":25,"lat":492622115,"lng":-1232499690,"alt_msl":119.55999755859375,"alt_rel":-1.459999918937683,"roll":-0.6299999952316284,"pitch":-23.979999542236328,"yaw":45.36000061035156,"completed_captures":386}}
{"TimeUS":1746400196875883,"Img":23,"Points":[],"Epoch":1746399644743720,"Delta_t":5,"Feedback":{"time_usec":552132158,"img_idx":26,"lat":492622117,"lng":-1232499691,"alt_msl":119.57999420166016,"alt_rel":-1.4399999380111694,"roll":-1.46999990940094,"pitch":-24.689998626708984,"yaw":42.93000030517578,"completed_captures":387}}
{"TimeUS":1746400197095599,"Img":24,"Points":[],"Epoch":1746399644743725,"Delta_t":6,"Feedback":{"time_usec":552351868,"img_idx":27,"lat":492622118,"lng":-1232499693,"alt_msl":119.6199951171875,"alt_rel":-1.399999976158142,"roll":-3.18999981880188,"pitch":-25.279998779296875,"yaw":43.64999771118164,"completed_captures":388}}
{"TimeUS":1746400197315382,"Img":25,"Points":[],"Epoch":1746399644743731,"Delta_t":5,"Feedback":{"time_usec":552571646,"img_idx":28,"lat":492622121,"lng":-1232499696,"alt_msl":119.64999389648438,"alt_rel":-1.3700000047683716,"roll":-0.8499999642372131,"pitch":-25.76999855041504,"yaw":42.06999969482422,"completed_captures":389}}
{"TimeUS":1746400197535722,"Img":26,"Points":[],"Epoch":1746399644743736,"Delta_t":5,"Feedback":{"time_usec":552791981,"img_idx":29,"lat":492622123,"lng":-1232499701,"alt_msl":119.70999908447266,"alt_rel":-1.309999942779541,"roll":-0.5399999618530273,"pitch":-26.549999237060547,"yaw":40.11000061035156,"completed_captures":390}}
{"TimeUS":1746400197755326,"Img":27,"Points":[],"Epoch":1746399644743741,"Delta_t":5,"Feedback":{"time_usec":553011580,"img_idx":30,"lat":492622124,"lng":-1232499708,"alt_msl":119.79999542236328,"alt_rel":-1.2200000286102295,"roll":0.17999999225139618,"pitch":-25.779998779296875,"yaw":39.23999786376953,"completed_captures":391}}
{"TimeUS":1746400197975912,"Img":28,"Points":[],"Epoch":1746399644743746,"Delta_t":6,"Feedback":{"time_usec":553232160,"img_idx":31,"lat":492622122,"lng":-1232499715,"alt_msl":119.89999389648438,"alt_rel":-1.1200000047683716,"roll":0.4599999785423279,"pitch":-27.029998779296875,"yaw":37.88999938964844,"completed_captures":392}}
{"TimeUS":1746400198195627,"Img":29,"Points":[],"Epoch":1746399644743752,"Delta_t":5,"Feedback":{"time_usec":553451870,"img_idx":32,"lat":492622121,"lng":-1232499718,"alt_msl":120.0,"alt_rel":-1.0199999809265137,"roll":0.4699999988079071,"pitch":-26.399999618530273,"yaw":37.459999084472656,"completed_captures":393}}
{"TimeUS":1746400198415343,"Img":30,"Points":[],"Epoch":1746399644743757,"Delta_t":5,"Feedback":{"time_usec":553671581,"img_idx":33,"lat":492622120,"lng":-1232499718,"alt_msl":120.07999420166016,"alt_rel":-0.9399999976158142,"roll":-0.9099999666213989,"pitch":-23.559999465942383,"yaw":35.96999740600586,"completed_captures":394}}
{"TimeUS":1746400198635795,"Img":31,"Points":[],"Epoch":1746399644743762,"Delta_t":6,"Feedback":{"time_usec":553892027,"img_idx":34,"lat":492622118,"lng":-1232499721,"alt_msl":120.14999389648438,"alt_rel":-0.8700000047683716,"roll":-3.0399999618530273,"pitch":-22.799999237060547,"yaw":35.40999984741211,"completed_captures":395}}
{"TimeUS":1746400198855399,"Img":32,"Points":[],"Epoch":1746399644743768,"Delta_t":5,"Feedback":{"time_usec":554111626,"img_idx":35,"lat":492622119,"lng":-1232499723,"alt_msl":120.18000030517578,"alt_rel":-0.8399999737739563,"roll":-6.029999732971191,"pitch":-21.579999923706055,"yaw":36.36000061035156,"completed_captures":396}}
{"TimeUS":1746400199075896,"Img":33,"Points":[],"Epoch":1746399644743773,"Delta_t":6,"Feedback":{"time_usec":554332117,"img_idx":36,"lat":492622121,"lng":-1232499725,"alt_msl":120.20999908447266,"alt_rel":-0.8100000023841858,"roll":-4.440000057220459,"pitch":-20.44999885559082,"yaw":37.709999084472656,"completed_captures":397}}
{"TimeUS":1746400199295679,"Img":34,"Points":[],"Epoch":1746399644743779,"Delta_t":5,"Feedback":{"time_usec":554551895,"img_idx":37,"lat":492622124,"lng":-1232499728,"alt_msl":120.22999572753906,"alt_rel":-0.7899999618530273,"roll":-2.6599998474121094,"pitch":-20.06999969482422,"yaw":37.93000030517578,"completed_captures":398}}
{"TimeUS":1746400199515394,"Img":35,"Points":[],"Epoch":1746399644743784,"Delta_t":5,"Feedback":{"time_usec":554771605,"img_idx":38,"lat":492622129,"lng":-1232499731,"alt_msl":120.23999786376953,"alt_rel":-0.7799999713897705,"roll":-1.6899999380111694,"pitch":-21.689998626708984,"yaw":37.599998474121094,"completed_captures":399}}
{"TimeUS":1746400199735779,"Img":36,"Points":[],"Epoch":1746399644743789,"Delta_t":5,"Feedback":{"time_usec":554991985,"img_idx":39,"lat":492622132,"lng":-1232499735,"alt_msl":120.23999786376953,"alt_rel":-0.7799999713897705,"roll":-1.1899999380111694,"pitch":-22.889999389648438,"yaw":36.70000076293945,"completed_captures":400}}
{"TimeUS":1746400199955473,"Img":37,"Points":[],"Epoch":1746399644743794,"Delta_t":6,"Feedback":{"time_usec":555211673,"img_idx":40,"lat":492622132,"lng":-1232499738,"alt_msl":120.25,"alt_rel":-0.7699999809265137,"roll":-0.6100000143051147,"pitch":-21.5,"yaw":34.56999969482422,"completed_captures":401}}
{"TimeUS":1746400200175947,"Img":38,"Points":[],"Epoch":1746399644743800,"Delta_t":6,"Feedback":{"time_usec":555432141,"img_idx":41,"lat":492622131,"lng":-1232499741,"alt_msl":120.25999450683594,"alt_rel":-0.7599999904632568,"roll":1.059999942779541,"pitch":-20.85999870300293,"yaw":32.89999771118164,"completed_captures":402}}
{"TimeUS":1746400200395685,"Img":39,"Points":[],"Epoch":1746399644743806,"Delta_t":4,"Feedback":{"time_usec":555651875,"img_idx":42,"lat":492622131,"lng":-1232499745,"alt_msl":120.2699966430664,"alt_rel":-0.75,"roll":4.630000114440918,"pitch":-19.28999900817871,"yaw":31.34000015258789,"completed_captures":403}}
{"TimeUS":1746400200615423,"Img":40,"Points":[],"Epoch":1746399644743810,"Delta_t":3,"Feedback":{"time_usec":555871610,"img_idx":43,"lat":492622130,"lng":-1232499750,"alt_msl":120.29000091552734,"alt_rel":-0.7299999594688416,"roll":3.8999998569488525,"pitch":-19.939998626708984,"yaw":32.79999923706055,"completed_captures":404}}
{"TimeUS":1746400200835786,"Img":41,"Points":[],"Epoch":1746399644743813,"Delta_t":9,"Feedback":{"time_usec":556091964,"img_idx":44,"lat":492622129,"lng":-1232499757,"alt_msl":120.29000091552734,"alt_rel":-0.7299999594688416,"roll":4.960000038146973,"pitch":-23.43000030517578,"yaw":30.15999984741211,"completed_captures":405}}
{"TimeUS":1746400201055435,"Img":42,"Points":[],"Epoch":1746399644743822,"Delta_t":5,"Feedback":{"time_usec":556311608,"img_idx":45,"lat":492622127,"lng":-1232499760,"alt_msl":120.31999969482422,"alt_rel":-0.699999988079071,"roll":5.75,"pitch":-24.709999084472656,"yaw":29.84000015258789,"completed_captures":406}}
{"TimeUS":1746400201275953,"Img":43,"Points":[],"Epoch":1746399644743827,"Delta_t":5,"Feedback":{"time_usec":556532121,"img_idx":46,"lat":492622126,"lng":-1232499760,"alt_msl":120.3499984741211,"alt_rel":-0.6699999570846558,"roll":3.559999942779541,"pitch":-24.51999855041504,"yaw":29.0,"completed_captures":407}}
{"TimeUS":1746400201495691,"Img":44,"Points":[],"Epoch":1746399644743832,"Delta_t":5,"Feedback":{"time_usec":556751854,"img_idx":47,"lat":492622128,"lng":-1232499760,"alt_msl":120.37999725341797,"alt_rel":-0.6399999856948853,"roll":2.6499998569488525,"pitch":-24.329999923706055,"yaw":27.849998474121094,"completed_captures":408}}
{"TimeUS":1746400201715407,"Img":45,"Points":[],"Epoch":1746399644743837,"Delta_t":5,"Feedback":{"time_usec":556971565,"img_idx":48,"lat":492622128,"lng":-1232499756,"alt_msl":120.40999603271484,"alt_rel":-0.6100000143051147,"roll":1.0499999523162842,"pitch":-23.28999900817871,"yaw":26.529998779296875,"completed_captures":409}}
{"TimeUS":1746400201935926,"Img":46,"Points":[],"Epoch":1746399644743842,"Delta_t":6,"Feedback":{"time_usec":557192078,"img_idx":49,"lat":492622128,"lng":-1232499751,"alt_msl":120.41999816894531,"alt_rel":-0.5999999642372131,"roll":4.019999980926514,"pitch":-24.3799991607666,"yaw":25.059999465942383,"completed_captures":410}}
{"TimeUS":1746400202155597,"Img":47,"Points":[],"Epoch":1746399644743848,"Delta_t":5,"Feedback":{"time_usec":557411744,"img_idx":50,"lat":492622126,"lng":-1232499744,"alt_msl":120.4699935913086,"alt_rel":-0.550000011920929,"roll":5.87999963760376,"pitch":-23.549999237060547,"yaw":26.459999084472656,"completed_captures":411}}
{"TimeUS":1746400202375959,"Img":48,"Points":[],"Epoch":1746399644743853,"Delta_t":5,"Feedback":{"time_usec":557632101,"img_idx":51,"lat":492622123,"lng":-1232499740,"alt_msl":120.5199966430664,"alt_rel":-0.5,"roll":5.900000095367432,"pitch":-21.459999084472656,"yaw":29.209999084472656,"completed_captures":412}}
{"TimeUS":1746400202595787,"Img":49,"Points":[],"Epoch":1746399644743858,"Delta_t":6,"Feedback":{"time_usec":557851923,"img_idx":52,"lat":492622121,"lng":-1232499738,"alt_msl":120.55999755859375,"alt_rel":-0.4599999785423279,"roll":6.429999828338623,"pitch":-19.18000030517578,"yaw":31.149999618530273,"completed_captures":413}}
{"TimeUS":1746400202815480,"Img":50,"Points":[],"Epoch":1746399644743864,"Delta_t":5,"Feedback":{"time_usec":558071611,"img_idx":53,"lat":492622120,"lng":-1232499737,"alt_msl":120.61000061035156,"alt_rel":-0.4099999964237213,"roll":7.609999656677246,"pitch":-17.65999984741211,"yaw":33.09000015258789,"completed_captures":414}}
{"TimeUS":1746400203035776,"Img":51,"Points":[],"Epoch":1746399644743869,"Delta_t":6,"Feedback":{"time_usec":558291901,"img_idx":54,"lat":492622117,"lng":-1232499738,"alt_msl":120.63999938964844,"alt_rel":-0.3799999952316284,"roll":8.489999771118164,"pitch":-16.709999084472656,"yaw":33.599998474121094,"completed_captures":415}}
{"TimeUS":1746400203255514,"Img":52,"Points":[],"Epoch":1746399644743875,"Delta_t":5,"Feedback":{"time_usec":558511634,"img_idx":55,"lat":492622117,"lng":-1232499738,"alt_msl":120.68999481201172,"alt_rel":-0.32999998331069946,"roll":7.929999828338623,"pitch":-16.03999900817871,"yaw":33.0099983215332,"completed_captures":416}}
{"TimeUS":1746400203476010,"Img":53,"Points":[],"Epoch":1746399644743880,"Delta_t":5,"Feedback":{"time_usec":558732125,"img_idx":56,"lat":492622117,"lng":-1232499736,"alt_msl":120.72999572753906,"alt_rel":-0.28999999165534973,"roll":8.069999694824219,"pitch":-15.239999771118164,"yaw":31.729999542236328,"completed_captures":417}}
{"TimeUS":1746400203695793,"Img":54,"Points":[],"Epoch":1746399644743885,"Delta_t":5,"Feedback":{"time_usec":558951903,"img_idx":57,"lat":492622117,"lng":-1232499737,"alt_msl":120.75999450683594,"alt_rel":-0.25999999046325684,"roll":9.75,"pitch":-14.75999927520752,"yaw":29.729999542236328,"completed_captures":418}}
{"TimeUS":1746400203915554,"Img":55,"Points":[],"Epoch":1746399644743890,"Delta_t":6,"Feedback":{"time_usec":559171658,"img_idx":58,"lat":492622117,"lng":-1232499739,"alt_msl":120.77999877929688,"alt_rel":-0.23999999463558197,"roll":10.429999351501465,"pitch":-12.550000190734863,"yaw":27.920000076293945,"completed_captures":419}}
{"TimeUS":1746400204135849,"Img":56,"Points":[],"Epoch":1746399644743896,"Delta_t":2,"Feedback":{"time_usec":559391951,"img_idx":59,"lat":492622117,"lng":-1232499745,"alt_msl":120.79999542236328,"alt_rel":-0.2199999988079071,"roll":12.479999542236328,"pitch":-5.109999656677246,"yaw":27.5,"completed_captures":420}}
{"TimeUS":1746400204355498,"Img":57,"Points":[],"Epoch":1746399644743898,"Delta_t":8,"Feedback":{"time_usec":559611592,"img_idx":60,"lat":492622118,"lng":-1232499752,"alt_msl":120.81999969482422,"alt_rel":-0.19999998807907104,"roll":12.889999389648438,"pitch":1.9299999475479126,"yaw":29.01999855041504,"completed_captures":421}}
{"TimeUS":1746400204575972,"Img":58,"Points":[],"Epoch":1746399644743906,"Delta_t":6,"Feedback":{"time_usec":559832060,"img_idx":61,"lat":492622120,"lng":-1232499757,"alt_msl":120.82999420166016,"alt_rel":-0.1899999976158142,"roll":12.649999618530273,"pitch":4.739999771118164,"yaw":29.75,"completed_captures":422}}
{"TimeUS":1746400204795777,"Img":59,"Points":[],"Epoch":1746399644743912,"Delta_t":5,"Feedback":{"time_usec":560051860,"img_idx":62,"lat":492622123,"lng":-1232499762,"alt_msl":120.8499984741211,"alt_rel":-0.17000000178813934,"roll":11.84000015258789,"pitch":7.309999942779541,"yaw":29.670000076293945,"completed_captures":423}}
{"TimeUS":1746400205015560,"Img":60,"Points":[],"Epoch":1746399644743917,"Delta_t":5,"Feedback":{"time_usec":560271638,"img_idx":63,"lat":492622125,"lng":-1232499769,"alt_msl":120.8699951171875,"alt_rel":-0.14999999105930328,"roll":10.699999809265137,"pitch":10.170000076293945,"yaw":30.139999389648438,"completed_captures":424}}
{"TimeUS":1746400205235900,"Img":61,"Points":[],"Epoch":1746399644743922,"Delta_t":6,"Feedback":{"time_usec":560491972,"img_idx":64,"lat":492622127,"lng":-1232499776,"alt_msl":120.88999938964844,"alt_rel":-0.12999999523162842,"roll":10.019999504089355,"pitch":12.059999465942383,"yaw":31.260000228881836,"completed_captures":425}}
{"TimeUS":1746400205455571,"Img":62,"Points":[],"Epoch":1746399644743928,"Delta_t":5,"Feedback":{"time_usec":560711638,"img_idx":65,"lat":492622130,"lng":-1232499783,"alt_msl":120.90999603271484,"alt_rel":-0.10999999940395355,"roll":9.369999885559082,"pitch":13.069999694824219,"yaw":33.099998474121094,"completed_captures":426}}
{"TimeUS":1746400205676023,"Img":63,"Points":[],"Epoch":1746399644743933,"Delta_t":5,"Feedback":{"time_usec":560932085,"img_idx":66,"lat":492622132,"lng":-1232499787,"alt_msl":120.93999481201172,"alt_rel":-0.07999999821186066,"roll":8.510000228881836,"pitch":14.09999942779541,"yaw":34.91999816894531,"completed_captures":427}}
{"TimeUS":1746400205895873,"Img":64,"Points":[],"Epoch":1746399644743938,"Delta_t":6,"Feedback":{"time_usec":561151929,"img_idx":67,"lat":492622132,"lng":-1232499788,"alt_msl":120.94999694824219,"alt_rel":-0.07000000029802322,"roll":8.579999923706055,"pitch":16.44999885559082,"yaw":35.88999938964844,"completed_captures":428}}
{"TimeUS":1746400206115611,"Img":65,"Points":[],"Epoch":1746399644743944,"Delta_t":5,"Feedback":{"time_usec":561371662,"img_idx":68,"lat":492622131,"lng":-1232499789,"alt_msl":120.95999908447266,"alt_rel":-0.05999999865889549,"roll":7.899999618530273,"pitch":17.68000030517578,"yaw":36.709999084472656,"completed_captures":429}}
{"TimeUS":1746400206335929,"Img":66,"Points":[],"Epoch":1746399644743949,"Delta_t":6,"Feedback":{"time_usec":561591974,"img_idx":69,"lat":492622130,"lng":-1232499791,"alt_msl":120.9699935913086,"alt_rel":-0.04999999701976776,"roll":7.460000038146973,"pitch":17.94999885559082,"yaw":38.029998779296875,"completed_captures":430}}
{"TimeUS":1746400206555578,"Img":67,"Points":[],"Epoch":1746399644743955,"Delta_t":5,"Feedback":{"time_usec":561811618,"img_idx":70,"lat":492622128,"lng":-1232499794,"alt_msl":120.97999572753906,"alt_rel":-0.03999999910593033,"roll":7.109999656677246,"pitch":17.209999084472656,"yaw":38.88999938964844,"completed_captures":431}}
{"TimeUS":1746400206776074,"Img":68,"Points":[],"Epoch":1746399644743960,"Delta_t":5,"Feedback":{"time_usec":562032109,"img_idx":71,"lat":492622127,"lng":-1232499800,"alt_msl":120.98999786376953,"alt_rel":-0.029999999329447746,"roll":6.569999694824219,"pitch":16.309999465942383,"yaw":39.55999755859375,"completed_captures":432}}
{"TimeUS":1746400206995835,"Img":69,"Points":[],"Epoch":1746399644743965,"Delta_t":6,"Feedback":{"time_usec":562251864,"img_idx":72,"lat":492622125,"lng":-1232499808,"alt_msl":121.00999450683594,"alt_rel":-0.009999999776482582,"roll":6.150000095367432,"pitch":16.31999969482422,"yaw":40.36000061035156,"completed_captures":433}}
{"TimeUS":1746400207215550,"Img":70,"Points":[],"Epoch":1746399644743971,"Delta_t":4,"Feedback":{"time_usec":562471575,"img_idx":73,"lat":492622125,"lng":-1232499815,"alt_msl":121.04000091552734,"alt_rel":0.019999999552965164,"roll":5.909999847412109,"pitch":16.079999923706055,"yaw":40.97999954223633,"completed_captures":434}}
{"TimeUS":1746400207435958,"Img":71,"Points":[],"Epoch":1746399644743975,"Delta_t":5,"Feedback":{"time_usec":562691978,"img_idx":74,"lat":492622125,"lng":-1232499822,"alt_msl":121.05999755859375,"alt_rel":0.03999999910593033,"roll":6.329999923706055,"pitch":16.639999389648438,"yaw":42.98999786376953,"completed_captures":435}}
{"TimeUS":1746400207655763,"Img":72,"Points":[],"Epoch":1746399644743980,"Delta_t":7,"Feedback":{"time_usec":562911776,"img_idx":75,"lat":492622127,"lng":-1232499827,"alt_msl":121.06999969482422,"alt_rel":0.04999999701976776,"roll":7.960000038146973,"pitch":17.959999084472656,"yaw":45.75,"completed_captures":436}}
{"TimeUS":1746400207876147,"Img":73,"Points":[],"Epoch":1746399644743987,"Delta_t":4,"Feedback":{"time_usec":563132156,"img_idx":76,"lat":492622130,"lng":-1232499830,"alt_msl":121.08999633789063,"alt_rel":0.07000000029802322,"roll":7.819999694824219,"pitch":20.68000030517578,"yaw":45.39999771118164,"completed_captures":437}}
{"TimeUS":1746400208095841,"Img":74,"Points":[[336.95652173913044,77.21739130434783],[320.5,81.66666666666667],[1078.162162162162,104.4054054054054]],"Epoch":1746399644743991,"Delta_t":6,"Feedback":{"time_usec":563351844,"img_idx":77,"lat":492622131,"lng":-1232499834,"alt_msl":121.0999984741211,"alt_rel":0.07999999821186066,"roll":10.90999984741211,"pitch":23.709999084472656,"yaw":44.79999923706055,"completed_captures":438}}
{"TimeUS":1746400208315624,"Img":75,"Points":[[614.0,293.0],[1313.1052631578948,338.7894736842105]],"Epoch":1746399644743997,"Delta_t":5,"Feedback":{"time_usec":563571622,"img_idx":78,"lat":492622130,"lng":-1232499836,"alt_msl":121.1199951171875,"alt_rel":0.09999999403953552,"roll":14.34000015258789,"pitch":29.01999855041504,"yaw":43.14999771118164,"completed_captures":439}}
{"TimeUS":1746400208536008,"Img":76,"Points":[[1374.8529411764705,508.47058823529414]],"Epoch":1746399644744002,"Delta_t":5,"Feedback":{"time_usec":563792001,"img_idx":79,"lat":492622130,"lng":-1232499836,"alt_msl":121.12999725341797,"alt_rel":0.10999999940395355,"roll":15.309999465942383,"pitch":33.98999786376953,"yaw":43.02000045776367,"completed_captures":440}}
{"TimeUS":1746400208755635,"Img":77,"Points":[[1372.4242424242425,616.3333333333334]],"Epoch":1746399644744007,"Delta_t":5,"Feedback":{"time_usec":564011623,"img_idx":80,"lat":492622130,"lng":-1232499832,"alt_msl":121.14999389648438,"alt_rel":0.12999999523162842,"roll":15.75,"pitch":36.45000076293945,"yaw":44.06999969482422,"completed_captures":441}}
{"TimeUS":1746400208976131,"Img":78,"Points":[[708.7428571428571,619.2857142857143],[695.4285714285714,622.2857142857143],[1386.53125,679.6875]],"Epoch":1746399644744012,"Delta_t":6,"Feedback":{"time_usec":564232113,"img_idx":81,"lat":492622129,"lng":-1232499828,"alt_msl":121.15999603271484,"alt_rel":0.14000000059604645,"roll":16.190000534057617,"pitch":37.529998779296875,"yaw":44.73999786376953,"completed_captures":442}}
{"TimeUS":1746400209195914,"Img":79,"Points":[[720.7368421052631,667.8947368421053],[707.5,671.125],[1395.9714285714285,718.8285714285714]],"Epoch":1746399644744018,"Delta_t":6,"Feedback":{"time_usec":564451890,"img_idx":82,"lat":492622129,"lng":-1232499823,"alt_msl":121.18000030517578,"alt_rel":0.1599999964237213,"roll":18.40999984741211,"pitch":38.119998931884766,"yaw":46.849998474121094,"completed_captures":443}}
{"TimeUS":1746400209415630,"Img":80,"Points":[[724.1290322580645,689.4193548387096],[711.8,692.3333333333334],[1399.8529411764705,738.4705882352941]],"Epoch":1746399644744024,"Delta_t":5,"Feedback":{"time_usec":564671601,"img_idx":83,"lat":492622127,"lng":-1232499817,"alt_msl":121.19999694824219,"alt_rel":0.17999999225139618,"roll":18.60999870300293,"pitch":38.48999786376953,"yaw":47.439998626708984,"completed_captures":444}}
{"TimeUS":1746400209636037,"Img":81,"Points":[[711.0588235294117,690.5588235294117],[698.8333333333334,693.4444444444445],[1386.8648648648648,739.1351351351351]],"Epoch":1746399644744029,"Delta_t":5,"Feedback":{"time_usec":564892003,"img_idx":84,"lat":492622127,"lng":-1232499813,"alt_msl":121.2199935913086,"alt_rel":0.19999998807907104,"roll":18.329999923706055,"pitch":38.57999801635742,"yaw":47.709999084472656,"completed_captures":445}}
{"TimeUS":1746400209855642,"Img":82,"Points":[[686.7741935483871,658.3870967741935],[673.9166666666666,661.25],[1363.8529411764705,710.4705882352941]],"Epoch":1746399644744034,"Delta_t":6,"Feedback":{"time_usec":565111602,"img_idx":85,"lat":492622127,"lng":-1232499808,"alt_msl":121.25,"alt_rel":0.22999998927116394,"roll":17.31999969482422,"pitch":38.15999984741211,"yaw":47.30999755859375,"completed_captures":446}}
{"TimeUS":1746400210076160,"Img":83,"Points":[[635.3333333333334,547.4333333333333],[622.4,550.2],[1318.8235294117646,602.7647058823529]],"Epoch":1746399644744040,"Delta_t":5,"Feedback":{"time_usec":565332115,"img_idx":86,"lat":492622124,"lng":-1232499798,"alt_msl":121.29000091552734,"alt_rel":0.26999998092651367,"roll":15.899999618530273,"pitch":35.80999755859375,"yaw":46.66999816894531,"completed_captures":447}}
{"TimeUS":1746400210295987,"Img":84,"Points":[[617.2333333333333,461.3333333333333],[604.0,464.5],[1304.9117647058824,516.2647058823529]],"Epoch":1746399644744045,"Delta_t":5,"Feedback":{"time_usec":565551937,"img_idx":87,"lat":492622122,"lng":-1232499791,"alt_msl":121.31999969482422,"alt_rel":0.29999998211860657,"roll":15.130000114440918,"pitch":33.86000061035156,"yaw":46.27000045776367,"completed_captures":448}}
{"TimeUS":1746400210515681,"Img":85,"Points":[[558.5945945945946,281.94594594594594],[543.6666666666666,285.1111111111111],[1259.888888888889,342.8888888888889]],"Epoch":1746399644744050,"Delta_t":6,"Feedback":{"time_usec":565771625,"img_idx":88,"lat":492622119,"lng":-1232499783,"alt_msl":121.33999633789063,"alt_rel":0.3199999928474426,"roll":13.789999961853027,"pitch":30.059999465942383,"yaw":45.46999740600586,"completed_captures":449}}
{"TimeUS":1746400210736021,"Img":86,"Points":[[479.05555555555554,15.833333333333334],[1204.9714285714285,97.82857142857142],[1703.0869565217392,1735.141304347826]],"Epoch":1746399644744056,"Delta_t":5,"Feedback":{"time_usec":565991960,"img_idx":89,"lat":492622116,"lng":-1232499778,"alt_msl":121.3699951171875,"alt_rel":0.3499999940395355,"roll":10.679999351501465,"pitch":24.76999855041504,"yaw":43.0099983215332,"completed_captures":450}}
{"TimeUS":1746400210955737,"Img":87,"Points":[[2109.3333333333335,1360.6666666666667],[2100.5555555555557,1365.6666666666667],[1587.659090909091,1446.5568181818182],[1169.4,1604.8]],"Epoch":1746399644744061,"Delta_t":5,"Feedback":{"time_usec":566211671,"img_idx":90,"lat":492622110,"lng":-1232499769,"alt_msl":121.38999938964844,"alt_rel":0.3700000047683716,"roll":6.670000076293945,"pitch":17.779998779296875,"yaw":39.34000015258789,"completed_captures":451}}
{"TimeUS":1746400211176278,"Img":88,"Points":[[2021.0,1018.0],[2012.2,1022.3333333333334],[1506.8555555555556,1078.2111111111112],[1092.5,1215.0]],"Epoch":1746399644744066,"Delta_t":6,"Feedback":{"time_usec":566432206,"img_idx":91,"lat":492622106,"lng":-1232499763,"alt_msl":121.40999603271484,"alt_rel":0.38999998569488525,"roll":3.8399999141693115,"pitch":9.4399995803833,"yaw":36.029998779296875,"completed_captures":452}}
{"TimeUS":1746400211396016,"Img":89,"Points":[[1969.5,856.0],[1960.421052631579,860.5263157894736],[1455.6702127659576,900.2553191489362],[1038.3333333333333,1031.3333333333333],[1531.3253012048192,1311.5060240963855]],"Epoch":1746399644744072,"Delta_t":5,"Feedback":{"time_usec":566651939,"img_idx":92,"lat":492622102,"lng":-1232499761,"alt_msl":121.43999481201172,"alt_rel":0.41999998688697815,"roll":2.7300000190734863,"pitch":3.309999942779541,"yaw":34.02000045776367,"completed_captures":453}}
{"TimeUS":1746400211615687,"Img":90,"Points":[[1978.6666666666667,817.3333333333334],[1969.421052631579,821.2105263157895],[1463.8039215686274,847.5],[1045.5,968.5],[1537.432098765432,1270.0246913580247]],"Epoch":1746399644744077,"Delta_t":5,"Feedback":{"time_usec":566871605,"img_idx":93,"lat":492622099,"lng":-1232499759,"alt_msl":121.45999908447266,"alt_rel":0.4399999976158142,"roll":2.3999998569488525,"pitch":1.3700000047683716,"yaw":32.32999801635742,"completed_captures":454}}
{"TimeUS":1746400211836072,"Img":91,"Points":[[1975.3333333333333,830.1666666666666],[1984.5,826.0],[1468.1313131313132,846.5757575757576],[1045.3333333333333,959.3333333333334],[1525.9493670886077,1279.4050632911392]],"Epoch":1746399644744082,"Delta_t":4,"Feedback":{"time_usec":567091986,"img_idx":94,"lat":492622097,"lng":-1232499756,"alt_msl":121.47999572753906,"alt_rel":0.4599999785423279,"roll":3.8499999046325684,"pitch":1.5899999141693115,"yaw":32.130001068115234,"completed_captures":455}}
{"TimeUS":1746400212055677,"Img":92,"Points":[[1989.1764705882354,806.0],[1999.0,802.0],[1481.49,821.7],[1060.5,935.0],[1545.1358024691358,1260.567901234568]],"Epoch":1746399644744086,"Delta_t":8,"Feedback":{"time_usec":567311583,"img_idx":95,"lat":492622096,"lng":-1232499755,"alt_msl":121.48999786376953,"alt_rel":0.4699999988079071,"roll":4.210000038146973,"pitch":0.9899999499320984,"yaw":32.22999954223633,"completed_captures":456}}
{"TimeUS":1746400212276217,"Img":93,"Points":[[1987.5,735.0],[1978.1875,738.5625],[1469.7373737373737,749.5454545454545],[1046.6666666666667,858.6666666666666],[1529.6533333333334,1184.6133333333332]],"Epoch":1746399644744094,"Delta_t":4,"Feedback":{"time_usec":567532119,"img_idx":96,"lat":492622095,"lng":-1232499755,"alt_msl":121.5,"alt_rel":0.47999998927116394,"roll":3.8499999046325684,"pitch":-0.38999998569488525,"yaw":31.979999542236328,"completed_captures":457}}
{"TimeUS":1746400212496023,"Img":94,"Points":[[1436.71,680.94],[1954.5,679.0],[1945.0,682.5],[1009.6666666666666,782.3333333333334],[1981.0,1033.0],[1483.139240506329,1126.5696202531647]],"Epoch":1746399644744098,"Delta_t":6,"Feedback":{"time_usec":567751919,"img_idx":97,"lat":492622096,"lng":-1232499756,"alt_msl":121.5199966430664,"alt_rel":0.5,"roll":1.8499999046325684,"pitch":-2.0799999237060547,"yaw":30.189998626708984,"completed_captures":458}}
{"TimeUS":1746400212715716,"Img":95,"Points":[[1943.0,671.0],[1933.5294117647059,674.4705882352941],[1425.4711538461538,679.3173076923077],[999.5,788.0],[1972.0,1025.0],[1475.162162162162,1127.972972972973]],"Epoch":1746399644744104,"Delta_t":5,"Feedback":{"time_usec":567971607,"img_idx":98,"lat":492622095,"lng":-1232499756,"alt_msl":121.52999877929688,"alt_rel":0.5099999904632568,"roll":1.6799999475479126,"pitch":-2.3299999237060547,"yaw":30.959999084472656,"completed_captures":459}}
{"TimeUS":1746400212936168,"Img":96,"Points":[[1884.0588235294117,643.7058823529412],[1893.5,641.0],[1377.6442307692307,651.6923076923077],[952.5,763.0],[1930.0,1001.0],[1436.7236842105262,1104.2763157894738]],"Epoch":1746399644744109,"Delta_t":6,"Feedback":{"time_usec":568192053,"img_idx":99,"lat":492622094,"lng":-1232499759,"alt_msl":121.54999542236328,"alt_rel":0.5299999713897705,"roll":0.47999998927116394,"pitch":-2.9099998474121094,"yaw":31.719999313354492,"completed_captures":460}}
{"TimeUS":1746400213155884,"Img":97,"Points":[[1849.0,631.0],[1840.125,634.25],[1334.2,645.6380952380953],[907.5,760.0],[1883.0,984.0],[1390.0897435897436,1090.4102564102564]],"Epoch":1746399644744115,"Delta_t":5,"Feedback":{"time_usec":568411764,"img_idx":100,"lat":492622094,"lng":-1232499763,"alt_msl":121.55999755859375,"alt_rel":0.5399999618530273,"roll":-0.29999998211860657,"pitch":-2.990000009536743,"yaw":32.349998474121094,"completed_captures":461}}
{"TimeUS":1746400213376246,"Img":98,"Points":[[1785.4375,577.4375],[1795.0,574.0],[1279.8613861386139,592.5148514851485],[852.5,709.0],[1342.7236842105262,1040.7894736842106]],"Epoch":1746399644744120,"Delta_t":5,"Feedback":{"time_usec":568632121,"img_idx":101,"lat":492622094,"lng":-1232499767,"alt_msl":121.56999969482422,"alt_rel":0.550000011920929,"roll":-1.1299999952316284,"pitch":-4.019999980926514,"yaw":33.599998474121094,"completed_captures":462}}
{"TimeUS":1746400213596007,"Img":99,"Points":[[1288.9223300970873,569.4077669902913],[1795.1875,588.75],[1805.0,586.0],[856.0,658.0],[1327.0389610389611,1025.6753246753246]],"Epoch":1746399644744125,"Delta_t":6,"Feedback":{"time_usec":568851876,"img_idx":102,"lat":492622095,"lng":-1232499772,"alt_msl":121.58999633789063,"alt_rel":0.5699999928474426,"roll":-1.46999990940094,"pitch":-4.659999847412109,"yaw":30.0,"completed_captures":463}}
{"TimeUS":1746400213815789,"Img":100,"Points":[[1292.52,536.89],[1798.125,575.875],[1808.0,574.0],[1306.9722222222222,999.25]],"Epoch":1746399644744131,"Delta_t":4,"Feedback":{"time_usec":569071654,"img_idx":103,"lat":492622098,"lng":-1232499778,"alt_msl":121.58999633789063,"alt_rel":0.5699999928474426,"roll":-1.6299999952316284,"pitch":-5.5,"yaw":27.939998626708984,"completed_captures":464}}
{"TimeUS":1746400214036085,"Img":101,"Points":[[1267.009708737864,519.2038834951456],[1771.6,568.4666666666667],[1781.0,566.5],[827.0,584.0],[1274.8815789473683,979.9342105263158]],"Epoch":1746399644744135,"Delta_t":6,"Feedback":{"time_usec":569291944,"img_idx":104,"lat":492622099,"lng":-1232499783,"alt_msl":121.5999984741211,"alt_rel":0.5799999833106995,"roll":-2.190000057220459,"pitch":-5.889999866485596,"yaw":27.149999618530273,"completed_captures":465}}
{"TimeUS":1746400214255779,"Img":102,"Points":[[1262.8252427184466,498.9514563106796],[1767.142857142857,557.5714285714286],[1777.0,555.5],[821.0,556.0],[1265.1756756756756,961.3378378378378]],"Epoch":1746399644744141,"Delta_t":6,"Feedback":{"time_usec":569511632,"img_idx":105,"lat":492622100,"lng":-1232499789,"alt_msl":121.61000061035156,"alt_rel":0.5899999737739563,"roll":-2.429999828338623,"pitch":-6.339999675750732,"yaw":26.31999969482422,"completed_captures":466}}
{"TimeUS":1746400214476297,"Img":103,"Points":[[1256.43,476.19],[813.0,530.0],[1760.0666666666666,539.6666666666666],[1769.5,538.0],[1251.671052631579,939.7236842105264]],"Epoch":1746399644744147,"Delta_t":3,"Feedback":{"time_usec":569732147,"img_idx":106,"lat":492622100,"lng":-1232499794,"alt_msl":121.61000061035156,"alt_rel":0.5899999737739563,"roll":-2.609999895095825,"pitch":-6.869999885559082,"yaw":26.059999465942383,"completed_captures":467}}
{"TimeUS":1746400214696035,"Img":104,"Points":[[1235.0679611650485,466.2718446601942],[791.0,518.0],[1739.0,530.5],[1749.0,529.0],[1232.5443037974683,926.3291139240506]],"Epoch":1746399644744150,"Delta_t":7,"Feedback":{"time_usec":569951878,"img_idx":107,"lat":492622100,"lng":-1232499797,"alt_msl":121.61000061035156,"alt_rel":0.5899999737739563,"roll":-3.0899999141693115,"pitch":-7.059999942779541,"yaw":26.149999618530273,"completed_captures":468}}
{"TimeUS":1746400214915796,"Img":105,"Points":[[1256.3457943925234,461.4299065420561],[813.0,517.5],[1761.2307692307693,520.6923076923077],[1771.0,519.0],[1255.5949367088608,921.6455696202531]],"Epoch":1746399644744157,"Delta_t":6,"Feedback":{"time_usec":570171633,"img_idx":108,"lat":492622099,"lng":-1232499796,"alt_msl":121.6199951171875,"alt_rel":0.5999999642372131,"roll":-2.5999999046325684,"pitch":-7.179999828338623,"yaw":26.76999855041504,"completed_captures":469}}
{"TimeUS":1746400215136136,"Img":106,"Points":[[1236.1442307692307,448.0],[1741.7692307692307,504.3076923076923],[1751.0,503.0],[792.5,507.0],[1239.432098765432,910.3456790123457]],"Epoch":1746399644744163,"Delta_t":5,"Feedback":{"time_usec":570391968,"img_idx":109,"lat":492622098,"lng":-1232499794,"alt_msl":121.62999725341797,"alt_rel":0.6100000143051147,"roll":-2.9099998474121094,"pitch":-7.46999979019165,"yaw":27.469999313354492,"completed_captures":470}}
{"TimeUS":1746400215355829,"Img":107,"Points":[[1232.1401869158879,443.14018691588785],[1738.0666666666666,499.6666666666667],[1748.0,497.5],[788.5,503.0],[1738.0,863.0],[1239.0394736842106,907.3815789473684]],"Epoch":1746399644744168,"Delta_t":5,"Feedback":{"time_usec":570611656,"img_idx":110,"lat":492622098,"lng":-1232499792,"alt_msl":121.62999725341797,"alt_rel":0.6100000143051147,"roll":-2.9700000286102295,"pitch":-7.569999694824219,"yaw":27.75,"completed_captures":471}}
{"TimeUS":1746400215576326,"Img":108,"Points":[[1243.4622641509434,455.39622641509436],[1749.857142857143,508.42857142857144],[1759.0,507.0],[801.0,517.0],[1250.9736842105262,917.2763157894736]],"Epoch":1746399644744173,"Delta_t":6,"Feedback":{"time_usec":570832147,"img_idx":111,"lat":492622098,"lng":-1232499789,"alt_msl":121.6199951171875,"alt_rel":0.5999999642372131,"roll":-2.679999828338623,"pitch":-7.289999961853027,"yaw":28.15999984741211,"completed_captures":472}}
{"TimeUS":1746400215796175,"Img":109,"Points":[[1247.3529411764705,441.2156862745098],[1754.142857142857,493.57142857142856],[1764.0,491.0],[804.0,504.0],[1253.9875,903.6]],"Epoch":1746399644744179,"Delta_t":4,"Feedback":{"time_usec":571051992,"img_idx":112,"lat":492622098,"lng":-1232499785,"alt_msl":121.5999984741211,"alt_rel":0.5799999833106995,"roll":-2.559999942779541,"pitch":-7.589999675750732,"yaw":28.44999885559082,"completed_captures":473}}
{"TimeUS":1746400216015757,"Img":110,"Points":[[1252.1545454545455,437.6090909090909],[1758.9375,490.1875],[1768.5,488.0],[808.5,500.0],[1254.6455696202531,899.506329113924]],"Epoch":1746399644744183,"Delta_t":5,"Feedback":{"time_usec":571271569,"img_idx":113,"lat":492622099,"lng":-1232499782,"alt_msl":121.57999420166016,"alt_rel":0.5600000023841858,"roll":-2.3999998569488525,"pitch":-7.659999847412109,"yaw":28.579999923706055,"completed_captures":474}}
{"TimeUS":1746400216236120,"Img":111,"Points":[[1218.4190476190477,441.752380952381],[1725.0666666666666,495.73333333333335],[774.0,503.0],[1226.2125,904.6625]],"Epoch":1746399644744188,"Delta_t":7,"Feedback":{"time_usec":571491925,"img_idx":114,"lat":492622100,"lng":-1232499780,"alt_msl":121.56999969482422,"alt_rel":0.550000011920929,"roll":-3.18999981880188,"pitch":-7.539999961853027,"yaw":28.709999084472656,"completed_captures":475}}
{"TimeUS":1746400216455813,"Img":112,"Points":[[1226.3235294117646,530.7450980392157],[1731.857142857143,574.4285714285714],[1741.0,572.0],[785.5,602.0],[1245.0833333333333,1000.2738095238095]],"Epoch":1746399644744195,"Delta_t":4,"Feedback":{"time_usec":571711614,"img_idx":115,"lat":492622101,"lng":-1232499776,"alt_msl":121.55999755859375,"alt_rel":0.5399999618530273,"roll":-2.5799999237060547,"pitch":-5.639999866485596,"yaw":30.01999855041504,"completed_captures":476}}
{"TimeUS":1746400216676354,"Img":113,"Points":[[1263.1714285714286,683.9047619047619],[1777.0,691.5],[1768.0,694.5],[831.6666666666666,782.6666666666666],[1312.506329113924,1148.2151898734178]],"Epoch":1746399644744199,"Delta_t":6,"Feedback":{"time_usec":571932149,"img_idx":116,"lat":492622102,"lng":-1232499776,"alt_msl":121.55999755859375,"alt_rel":0.5399999618530273,"roll":-1.350000023841858,"pitch":-2.2699999809265137,"yaw":33.32999801635742,"completed_captures":477}}
{"TimeUS":1746400216896092,"Img":114,"Points":[[1865.5,841.0],[1856.235294117647,844.7647058823529],[1352.6633663366338,874.7722772277227],[932.0,1003.5],[1430.0714285714287,1327.8809523809523]],"Epoch":1746399644744205,"Delta_t":5,"Feedback":{"time_usec":572151882,"img_idx":117,"lat":492622102,"lng":-1232499776,"alt_msl":121.55999755859375,"alt_rel":0.5399999618530273,"roll":0.9099999666213989,"pitch":2.679999828338623,"yaw":37.46999740600586,"completed_captures":478}}
{"TimeUS":1746400217115786,"Img":115,"Points":[[1901.0,988.5],[1892.388888888889,992.8333333333334],[1389.4271844660195,1040.5339805825242],[973.5,1186.5],[1487.5696202531647,1501.0759493670887]],"Epoch":1746399644744210,"Delta_t":6,"Feedback":{"time_usec":572371570,"img_idx":118,"lat":492622105,"lng":-1232499776,"alt_msl":121.54999542236328,"alt_rel":0.5299999713897705,"roll":2.0199999809265137,"pitch":6.039999961853027,"yaw":39.540000915527344,"completed_captures":479}}
{"TimeUS":1746400217336193,"Img":116,"Points":[[1969.0,1154.0],[1960.0625,1158.75],[1453.73,1213.26],[1036.3333333333333,1359.3333333333333]],"Epoch":1746399644744216,"Delta_t":5,"Feedback":{"time_usec":572591972,"img_idx":119,"lat":492622105,"lng":-1232499775,"alt_msl":121.54000091552734,"alt_rel":0.5199999809265137,"roll":3.4700000286102295,"pitch":9.719999313354492,"yaw":40.40999984741211,"completed_captures":480}}
{"TimeUS":1746400217555820,"Img":117,"Points":[[2002.0,1267.0],[1993.3333333333333,1272.3333333333333],[1485.4166666666667,1334.6875],[1068.5,1486.5]],"Epoch":1746399644744221,"Delta_t":6,"Feedback":{"time_usec":572811593,"img_idx":120,"lat":492622107,"lng":-1232499773,"alt_msl":121.5199966430664,"alt_rel":0.5,"roll":4.420000076293945,"pitch":12.769999504089355,"yaw":41.77000045776367,"completed_captures":481}}
{"TimeUS":1746400217776383,"Img":118,"Points":[[2058.0,1414.0],[2049.0,1417.5],[1535.1,1487.38],[1114.0,1647.0]],"Epoch":1746399644744227,"Delta_t":5,"Feedback":{"time_usec":573032151,"img_idx":121,"lat":492622109,"lng":-1232499770,"alt_msl":121.5,"alt_rel":0.47999998927116394,"roll":5.46999979019165,"pitch":15.9399995803833,"yaw":42.7599983215332,"completed_captures":482}}
{"TimeUS":1746400217996143,"Img":119,"Points":[],"Epoch":1746399644744232,"Delta_t":5,"Feedback":{"time_usec":573251906,"img_idx":122,"lat":492622111,"lng":-1232499768,"alt_msl":121.48999786376953,"alt_rel":0.4699999988079071,"roll":6.609999656677246,"pitch":18.65999984741211,"yaw":43.47999954223633,"completed_captures":483}}
{"TimeUS":1746400218215882,"Img":120,"Points":[],"Epoch":1746399644744237,"Delta_t":4,"Feedback":{"time_usec":573471641,"img_idx":123,"lat":492622114,"lng":-1232499765,"alt_msl":121.48999786376953,"alt_rel":0.4699999988079071,"roll":7.409999847412109,"pitch":21.229999542236328,"yaw":44.529998779296875,"completed_captures":484}}
{"TimeUS":1746400218436222,"Img":121,"Points":[[1206.1081081081081,97.13513513513513]],"Epoch":1746399644744241,"Delta_t":7,"Feedback":{"time_usec":573691974,"img_idx":124,"lat":492622116,"lng":-1232499761,"alt_msl":121.48999786376953,"alt_rel":0.4699999988079071,"roll":8.449999809265137,"pitch":24.119998931884766,"yaw":45.849998474121094,"completed_captures":485}}
{"TimeUS":1746400218655982,"Img":122,"Points":[[455.3076923076923,136.0],[466.72727272727275,135.0],[1175.611111111111,274.25]],"Epoch":1746399644744248,"Delta_t":5,"Feedback":{"time_usec":573911729,"img_idx":125,"lat":492622118,"lng":-1232499757,"alt_msl":121.47999572753906,"alt_rel":0.4599999785423279,"roll":8.539999961853027,"pitch":27.75,"yaw":47.15999984741211,"completed_captures":486}}
{"TimeUS":1746400218876367,"Img":123,"Points":[[1148.361111111111,384.0833333333333]],"Epoch":1746399644744253,"Delta_t":5,"Feedback":{"time_usec":574132109,"img_idx":126,"lat":492622119,"lng":-1232499749,"alt_msl":121.4699935913086,"alt_rel":0.44999998807907104,"roll":9.380000114440918,"pitch":29.78999900817871,"yaw":49.34000015258789,"completed_captures":487}}
{"TimeUS":1746400219096150,"Img":124,"Points":[[1106.8333333333333,470.22222222222223]],"Epoch":1746399644744258,"Delta_t":6,"Feedback":{"time_usec":574351886,"img_idx":127,"lat":492622121,"lng":-1232499742,"alt_msl":121.45999908447266,"alt_rel":0.4399999976158142,"roll":10.269999504089355,"pitch":31.279998779296875,"yaw":51.7599983215332,"completed_captures":488}}
{"TimeUS":1746400219315888,"Img":125,"Points":[[1074.027027027027,520.027027027027]],"Epoch":1746399644744264,"Delta_t":3,"Feedback":{"time_usec":574571621,"img_idx":128,"lat":492622121,"lng":-1232499739,"alt_msl":121.43999481201172,"alt_rel":0.41999998688697815,"roll":10.170000076293945,"pitch":32.029998779296875,"yaw":53.43000030517578,"completed_captures":489}}
{"TimeUS":1746400219536273,"Img":126,"Points":[[1012.0277777777778,540.75]],"Epoch":1746399644744267,"Delta_t":7,"Feedback":{"time_usec":574791999,"img_idx":129,"lat":492622121,"lng":-1232499738,"alt_msl":121.43999481201172,"alt_rel":0.41999998688697815,"roll":9.25,"pitch":32.31999969482422,"yaw":54.689998626708984,"completed_captures":490}}
{"TimeUS":1746400219755922,"Img":127,"Points":[[248.27272727272728,529.1818181818181],[237.83333333333334,530.8333333333334],[970.8611111111111,592.3888888888889]],"Epoch":1746399644744274,"Delta_t":6,"Feedback":{"time_usec":575011642,"img_idx":130,"lat":492622120,"lng":-1232499737,"alt_msl":121.43000030517578,"alt_rel":0.4099999964237213,"roll":10.399999618530273,"pitch":33.09000015258789,"yaw":56.939998626708984,"completed_captures":491}}
{"TimeUS":1746400219976418,"Img":128,"Points":[[203.79166666666666,586.3541666666666],[935.0555555555555,643.7777777777778]],"Epoch":1746399644744280,"Delta_t":5,"Feedback":{"time_usec":575232133,"img_idx":131,"lat":492622119,"lng":-1232499736,"alt_msl":121.43000030517578,"alt_rel":0.4099999964237213,"roll":11.239999771118164,"pitch":34.14999771118164,"yaw":58.63999938964844,"completed_captures":492}}
{"TimeUS":1746400220196201,"Img":129,"Points":[[181.85416666666666,600.3541666666666],[917.0294117647059,653.6176470588235]],"Epoch":1746399644744285,"Delta_t":5,"Feedback":{"time_usec":575451911,"img_idx":132,"lat":492622119,"lng":-1232499734,"alt_msl":121.43000030517578,"alt_rel":0.4099999964237213,"roll":10.550000190734863,"pitch":34.27000045776367,"yaw":58.98999786376953,"completed_captures":493}}
{"TimeUS":1746400220415917,"Img":130,"Points":[[180.47368421052633,588.1052631578947],[170.5,590.0],[911.4285714285714,642.6]],"Epoch":1746399644744290,"Delta_t":6,"Feedback":{"time_usec":575671621,"img_idx":133,"lat":492622119,"lng":-1232499732,"alt_msl":121.41999816894531,"alt_rel":0.3999999761581421,"roll":9.949999809265137,"pitch":35.15999984741211,"yaw":58.87999725341797,"completed_captures":494}}
{"TimeUS":1746400220636257,"Img":131,"Points":[[176.36363636363637,555.4090909090909],[165.76190476190476,557.1428571428571],[909.3714285714286,611.9428571428572]],"Epoch":1746399644744296,"Delta_t":5,"Feedback":{"time_usec":575891956,"img_idx":134,"lat":492622118,"lng":-1232499730,"alt_msl":121.40999603271484,"alt_rel":0.38999998569488525,"roll":10.710000038146973,"pitch":34.65999984741211,"yaw":59.46999740600586,"completed_captures":495}}
{"TimeUS":1746400220855928,"Img":132,"Points":[[172.0,543.2307692307693],[161.0,545.0769230769231],[906.0857142857143,599.5428571428571]],"Epoch":1746399644744301,"Delta_t":5,"Feedback":{"time_usec":576111622,"img_idx":135,"lat":492622117,"lng":-1232499728,"alt_msl":121.39999389648438,"alt_rel":0.3799999952316284,"roll":10.760000228881836,"pitch":34.90999984741211,"yaw":59.71999740600586,"completed_captures":496}}
{"TimeUS":1746400221076424,"Img":133,"Points":[[153.35294117647058,500.1764705882353],[142.61111111111111,502.1111111111111],[892.3529411764706,563.4117647058823]],"Epoch":1746399644744306,"Delta_t":4,"Feedback":{"time_usec":576332114,"img_idx":136,"lat":492622116,"lng":-1232499725,"alt_msl":121.38999938964844,"alt_rel":0.3700000047683716,"roll":9.710000038146973,"pitch":34.119998931884766,"yaw":59.05999755859375,"completed_captures":497}}
{"TimeUS":1746400221296185,"Img":134,"Points":[[153.0,454.3333333333333],[141.0,456.0],[143.0,456.0],[895.1428571428571,523.7428571428571]],"Epoch":1746399644744310,"Delta_t":7,"Feedback":{"time_usec":576551868,"img_idx":137,"lat":492622115,"lng":-1232499724,"alt_msl":121.38999938964844,"alt_rel":0.3700000047683716,"roll":8.550000190734863,"pitch":31.649999618530273,"yaw":57.849998474121094,"completed_captures":498}}
{"TimeUS":1746400221515923,"Img":135,"Points":[[150.5625,397.6875],[139.0,399.5],[893.7368421052631,480.9736842105263]],"Epoch":1746399644744317,"Delta_t":5,"Feedback":{"time_usec":576771601,"img_idx":138,"lat":492622115,"lng":-1232499721,"alt_msl":121.37999725341797,"alt_rel":0.35999998450279236,"roll":7.170000076293945,"pitch":29.739999771118164,"yaw":56.39999771118164,"completed_captures":499}}
{"TimeUS":1746400221736352,"Img":136,"Points":[[190.0,403.4117647058824],[178.33333333333334,405.25],[927.2285714285714,476.57142857142856]],"Epoch":1746399644744322,"Delta_t":5,"Feedback":{"time_usec":576992025,"img_idx":139,"lat":492622114,"lng":-1232499719,"alt_msl":121.36000061035156,"alt_rel":0.3400000035762787,"roll":7.569999694824219,"pitch":29.349998474121094,"yaw":56.63999938964844,"completed_captures":500}}
{"TimeUS":1746400221955979,"Img":137,"Points":[[958.2352941176471,457.3235294117647]],"Epoch":1746399644744327,"Delta_t":6,"Feedback":{"time_usec":577211646,"img_idx":140,"lat":492622114,"lng":-1232499717,"alt_msl":121.3499984741211,"alt_rel":0.32999998331069946,"roll":7.609999656677246,"pitch":28.78999900817871,"yaw":56.06999969482422,"completed_captures":501}}
{"TimeUS":1746400222176453,"Img":138,"Points":[[988.2424242424242,433.42424242424244]],"Epoch":1746399644744333,"Delta_t":5,"Feedback":{"time_usec":577432115,"img_idx":141,"lat":492622114,"lng":-1232499717,"alt_msl":121.33999633789063,"alt_rel":0.3199999928474426,"roll":7.989999771118164,"pitch":28.299999237060547,"yaw":55.75,"completed_captures":502}}
{"TimeUS":1746400222396347,"Img":139,"Points":[[277.6,340.8],[267.07142857142856,342.57142857142856],[1004.8918918918919,416.97297297297297]],"Epoch":1746399644744338,"Delta_t":5,"Feedback":{"time_usec":577652004,"img_idx":142,"lat":492622115,"lng":-1232499716,"alt_msl":121.33999633789063,"alt_rel":0.3199999928474426,"roll":8.949999809265137,"pitch":27.94999885559082,"yaw":56.27000045776367,"completed_captures":503}}
{"TimeUS":1746400222615929,"Img":140,"Points":[[251.875,249.4375],[240.71428571428572,250.92857142857142],[987.1142857142858,336.42857142857144]],"Epoch":1746399644744343,"Delta_t":5,"Feedback":{"time_usec":577871581,"img_idx":143,"lat":492622115,"lng":-1232499716,"alt_msl":121.33999633789063,"alt_rel":0.3199999928474426,"roll":7.87999963760376,"pitch":26.3799991607666,"yaw":55.34000015258789,"completed_captures":504}}
{"TimeUS":1746400222836336,"Img":141,"Points":[[964.0,37.666666666666664]],"Epoch":1746399644744348,"Delta_t":6,"Feedback":{"time_usec":578091982,"img_idx":144,"lat":492622118,"lng":-1232499714,"alt_msl":121.33999633789063,"alt_rel":0.3199999928474426,"roll":5.71999979019165,"pitch":20.329999923706055,"yaw":52.28999710083008,"completed_captures":505}}
{"TimeUS":1746400223055985,"Img":142,"Points":[[1422.3614457831325,1249.44578313253]],"Epoch":1746399644744354,"Delta_t":5,"Feedback":{"time_usec":578311626,"img_idx":145,"lat":492622117,"lng":-1232499710,"alt_msl":121.3499984741211,"alt_rel":0.32999998331069946,"roll":4.360000133514404,"pitch":10.579999923706055,"yaw":49.30999755859375,"completed_captures":506}}
{"TimeUS":1746400223276482,"Img":143,"Points":[[1937.6666666666667,1056.3333333333333],[1929.1764705882354,1060.8235294117646],[1426.7021276595744,1113.968085106383],[1012.6666666666666,1252.6666666666667]],"Epoch":1746399644744359,"Delta_t":6,"Feedback":{"time_usec":578532117,"img_idx":146,"lat":492622116,"lng":-1232499710,"alt_msl":121.3499984741211,"alt_rel":0.32999998331069946,"roll":3.6399998664855957,"pitch":7.289999961853027,"yaw":46.23999786376953,"completed_captures":507}}
{"TimeUS":1746400223496242,"Img":144,"Points":[[2018.5,952.0],[2010.25,956.75],[1502.8736842105263,998.7157894736843],[1087.5,1127.5]],"Epoch":1746399644744365,"Delta_t":5,"Feedback":{"time_usec":578751872,"img_idx":147,"lat":492622114,"lng":-1232499712,"alt_msl":121.36000061035156,"alt_rel":0.3400000035762787,"roll":5.049999713897705,"pitch":4.699999809265137,"yaw":44.80999755859375,"completed_captures":508}}
{"TimeUS":1746400223716025,"Img":145,"Points":[[2042.5,890.0],[2033.3529411764705,894.3529411764706],[1524.6702127659576,934.1914893617021],[1109.0,1062.5]],"Epoch":1746399644744370,"Delta_t":6,"Feedback":{"time_usec":578971649,"img_idx":148,"lat":492622112,"lng":-1232499714,"alt_msl":121.3499984741211,"alt_rel":0.32999998331069946,"roll":5.619999885559082,"pitch":3.18999981880188,"yaw":44.279998779296875,"completed_captures":509}}
{"TimeUS":1746400223936432,"Img":146,"Points":[[2017.5,849.0],[2008.4117647058824,853.2941176470588],[1500.53125,897.5729166666666],[1084.5,1031.0]],"Epoch":1746399644744376,"Delta_t":5,"Feedback":{"time_usec":579192051,"img_idx":149,"lat":492622110,"lng":-1232499713,"alt_msl":121.33999633789063,"alt_rel":0.3199999928474426,"roll":5.210000038146973,"pitch":2.25,"yaw":44.73999786376953,"completed_captures":510}}
{"TimeUS":1746400224156103,"Img":147,"Points":[[2036.0,863.5],[2027.2222222222222,868.4444444444445],[1519.4141414141413,919.3333333333334],[1105.5,1059.0]],"Epoch":1746399644744381,"Delta_t":5,"Feedback":{"time_usec":579411717,"img_idx":150,"lat":492622109,"lng":-1232499713,"alt_msl":121.33999633789063,"alt_rel":0.3199999928474426,"roll":5.460000038146973,"pitch":2.5899999141693115,"yaw":45.59000015258789,"completed_captures":511}}
{"TimeUS":1746400224376510,"Img":148,"Points":[[2007.5,852.0],[1998.611111111111,856.3333333333334],[1491.9897959183672,908.5],[1076.6666666666667,1048.6666666666667]],"Epoch":1746399644744386,"Delta_t":5,"Feedback":{"time_usec":579632119,"img_idx":151,"lat":492622110,"lng":-1232499712,"alt_msl":121.32999420166016,"alt_rel":0.3100000023841858,"roll":5.109999656677246,"pitch":2.299999952316284,"yaw":45.97999954223633,"completed_captures":512}}
{"TimeUS":1746400224596226,"Img":149,"Points":[[1984.0,852.0],[1975.3529411764705,856.2352941176471],[1469.55,904.46],[1054.5,1041.5]],"Epoch":1746399644744391,"Delta_t":6,"Feedback":{"time_usec":579851829,"img_idx":152,"lat":492622111,"lng":-1232499709,"alt_msl":121.31999969482422,"alt_rel":0.29999998211860657,"roll":4.5,"pitch":2.169999837875366,"yaw":45.849998474121094,"completed_captures":513}}
{"TimeUS":1746400224815987,"Img":150,"Points":[[1985.0,851.0],[1976.0,855.2222222222222],[1470.04,900.1],[1055.0,1034.5]],"Epoch":1746399644744397,"Delta_t":5,"Feedback":{"time_usec":580071585,"img_idx":153,"lat":492622111,"lng":-1232499707,"alt_msl":121.31999969482422,"alt_rel":0.29999998211860657,"roll":4.400000095367432,"pitch":2.180000066757202,"yaw":45.56999969482422,"completed_captures":514}}
{"TimeUS":1746400225036438,"Img":151,"Points":[[1988.0,852.5],[1979.1176470588234,856.9411764705883],[1472.5463917525774,900.4226804123712],[1056.5,1034.0]],"Epoch":1746399644744402,"Delta_t":5,"Feedback":{"time_usec":580292031,"img_idx":154,"lat":492622111,"lng":-1232499706,"alt_msl":121.31999969482422,"alt_rel":0.29999998211860657,"roll":4.21999979019165,"pitch":2.049999952316284,"yaw":45.30999755859375,"completed_captures":515}}
{"TimeUS":1746400225256020,"Img":152,"Points":[[1471.5,909.5]],"Epoch":1746399644744407,"Delta_t":5,"Feedback":{"time_usec":580511608,"img_idx":155,"lat":492622110,"lng":-1232499706,"alt_msl":121.31999969482422,"alt_rel":0.29999998211860657,"roll":4.119999885559082,"pitch":2.2899999618530273,"yaw":45.66999816894531,"completed_captures":516}}
{"TimeUS":1746400225476561,"Img":153,"Points":[],"Epoch":1746399644744412,"Delta_t":6,"Feedback":{"time_usec":580732143,"img_idx":156,"lat":492622108,"lng":-1232499706,"alt_msl":121.30999755859375,"alt_rel":0.28999999165534973,"roll":3.8299999237060547,"pitch":3.0299999713897705,"yaw":46.47999954223633,"completed_captures":517}}
{"TimeUS":1746400225696322,"Img":154,"Points":[],"Epoch":1746399644744418,"Delta_t":6,"Feedback":{"time_usec":580951898,"img_idx":157,"lat":492622106,"lng":-1232499707,"alt_msl":121.31999969482422,"alt_rel":0.29999998211860657,"roll":4.069999694824219,"pitch":4.099999904632568,"yaw":48.06999969482422,"completed_captures":518}}
{"TimeUS":1746400225916060,"Img":155,"Points":[],"Epoch":1746399644744424,"Delta_t":5,"Feedback":{"time_usec":581171631,"img_idx":158,"lat":492622105,"lng":-1232499704,"alt_msl":121.32999420166016,"alt_rel":0.3100000023841858,"roll":3.740000009536743,"pitch":4.239999771118164,"yaw":49.599998474121094,"completed_captures":519}}
{"TimeUS":1746400226136445,"Img":156,"Points":[],"Epoch":1746399644744429,"Delta_t":5,"Feedback":{"time_usec":581392011,"img_idx":159,"lat":492622104,"lng":-1232499700,"alt_msl":121.32999420166016,"alt_rel":0.3100000023841858,"roll":4.119999885559082,"pitch":4.610000133514404,"yaw":49.36000061035156,"completed_captures":520}}
{"TimeUS":1746400226356094,"Img":157,"Points":[],"Epoch":1746399644744434,"Delta_t":6,"Feedback":{"time_usec":581611654,"img_idx":160,"lat":492622103,"lng":-1232499696,"alt_msl":121.32999420166016,"alt_rel":0.3100000023841858,"roll":4.630000114440918,"pitch":3.809999942779541,"yaw":47.459999084472656,"completed_captures":521}}
{"TimeUS":1746400226576612,"Img":158,"Points":[],"Epoch":1746399644744440,"Delta_t":4,"Feedback":{"time_usec":581832168,"img_idx":161,"lat":492622101,"lng":-1232499693,"alt_msl":121.31999969482422,"alt_rel":0.29999998211860657,"roll":5.299999713897705,"pitch":2.1399998664855957,"yaw":43.790000915527344,"completed_captures":522}}
{"TimeUS":1746400226796395,"Img":159,"Points":[],"Epoch":1746399644744444,"Delta_t":6,"Feedback":{"time_usec":582051945,"img_idx":162,"lat":492622101,"lng":-1232499692,"alt_msl":121.30999755859375,"alt_rel":0.28999999165534973,"roll":4.699999809265137,"pitch":0.38999998569488525,"yaw":38.82999801635742,"completed_captures":523}}
{"TimeUS":1746400227016089,"Img":160,"Points":[],"Epoch":1746399644744450,"Delta_t":6,"Feedback":{"time_usec":582271633,"img_idx":163,"lat":492622102,"lng":-1232499689,"alt_msl":121.27999877929688,"alt_rel":0.25999999046325684,"roll":3.379999876022339,"pitch":-2.5199999809265137,"yaw":37.71999740600586,"completed_captures":524}}
